[{"Ano":2013,"cod_municipio":"1100015","municipio":"Alta Floresta D'Oeste","uf":"RO","regiao":"Norte","lat":-11.9282,"lon":-61.9985,"populacao":25728,"n_benef":3360,"valor_nominal":4.834,"valor_2021":7.754,"pbfPerBenef":2307.74,"pbfPerCapita":301.38,"idhm_2010":0.641,"linha_pobreza_2010":28.45,"_source":"fallback"},{"Ano":2013,"cod_municipio":"1100122","municipio":"Cacoal","uf":"RO","regiao":"Norte","lat":-11.4377,"lon":-61.4474,"populacao":128026,"n_benef":12831,"valor_nominal":18.4575,"valor_2021":29.6067,"pbfPerBenef":2307.44,"pbfPerCapita":231.26,"idhm_2010":0.718,"linha_pobreza_2010":21.83,"_source":"fallback"},{"Ano":2013,"cod_municipio":"1100205","municipio":"Porto Velho","uf":"RO","regiao":"Norte","lat":-8.7619,"lon":-63.9039,"populacao":484992,"n_benef":35470,"valor_nominal":51.0238,"valor_2021":81.8444,"pbfPerBenef":2307.43,"pbfPerCapita":168.75,"idhm_2010":0.736,"linha_pobreza_2010":15.93,"_source":"fallback"},{"Ano":2013,"cod_municipio":"1200013","municipio":"Acrelândia","uf":"AC","regiao":"Norte","lat":-9.8253,"lon":-66.8961,"populacao":13353,"n_benef":2312,"valor_nominal":4.6307,"valor_2021":7.4279,"pbfPerBenef":3212.75,"pbfPerCapita":556.27,"idhm_2010":0.604,"linha_pobreza_2010":32.67,"_source":"fallback"},{"Ano":2013,"cod_municipio":"1200401","municipio":"Rio Branco","uf":"AC","regiao":"Norte","lat":-9.9747,"lon":-67.8243,"populacao":357194,"n_benef":39857,"valor_nominal":79.8135,"valor_2021":128.0245,"pbfPerBenef":3212.1,"pbfPerCapita":358.42,"idhm_2010":0.727,"linha_pobreza_2010":21.05,"_source":"fallback"},{"Ano":2013,"cod_municipio":"1302603","municipio":"Manaus","uf":"AM","regiao":"Norte","lat":-3.119,"lon":-60.0217,"populacao":1982177,"n_benef":205321,"valor_nominal":371.1608,"valor_2021":595.3588,"pbfPerBenef":2899.65,"pbfPerCapita":300.36,"idhm_2010":0.737,"linha_pobreza_2010":18.42,"_source":"fallback"},{"Ano":2013,"cod_municipio":"1303809","municipio":"Parintins","uf":"AM","regiao":"Norte","lat":-2.6283,"lon":-56.7351,"populacao":41575,"n_benef":7834,"valor_nominal":14.1624,"valor_2021":22.7171,"pbfPerBenef":2899.81,"pbfPerCapita":546.41,"idhm_2010":0.658,"linha_pobreza_2010":33.51,"_source":"fallback"},{"Ano":2013,"cod_municipio":"1400100","municipio":"Boa Vista","uf":"RR","regiao":"Norte","lat":2.8235,"lon":-60.6758,"populacao":308996,"n_benef":31449,"valor_nominal":55.5395,"valor_2021":89.0879,"pbfPerBenef":2832.77,"pbfPerCapita":288.31,"idhm_2010":0.752,"linha_pobreza_2010":17.62,"_source":"fallback"},{"Ano":2013,"cod_municipio":"1400308","municipio":"Caracaraí","uf":"RR","regiao":"Norte","lat":1.8231,"lon":-61.1264,"populacao":15890,"n_benef":2453,"valor_nominal":4.3328,"valor_2021":6.95,"pbfPerBenef":2833.25,"pbfPerCapita":437.38,"idhm_2010":0.624,"linha_pobreza_2010":26.73,"_source":"fallback"},{"Ano":2013,"cod_municipio":"1400407","municipio":"Caroebe","uf":"RR","regiao":"Norte","lat":0.8856,"lon":-59.6967,"populacao":9754,"n_benef":2192,"valor_nominal":3.8726,"valor_2021":6.2118,"pbfPerBenef":2833.84,"pbfPerCapita":636.84,"idhm_2010":0.547,"linha_pobreza_2010":38.92,"_source":"fallback"},{"Ano":2013,"cod_municipio":"1500107","municipio":"Abaetetuba","uf":"PA","regiao":"Norte","lat":-1.7197,"lon":-48.8783,"populacao":147267,"n_benef":30214,"valor_nominal":52.123,"valor_2021":83.6076,"pbfPerBenef":2767.18,"pbfPerCapita":567.73,"idhm_2010":0.628,"linha_pobreza_2010":42.31,"_source":"fallback"},{"Ano":2013,"cod_municipio":"1501402","municipio":"Belém","uf":"PA","regiao":"Norte","lat":-1.4558,"lon":-48.5044,"populacao":1425922,"n_benef":161869,"valor_nominal":279.2402,"valor_2021":447.9139,"pbfPerBenef":2767.14,"pbfPerCapita":314.12,"idhm_2010":0.746,"linha_pobreza_2010":23.41,"_source":"fallback"},{"Ano":2013,"cod_municipio":"1505536","municipio":"Parauapebas","uf":"PA","regiao":"Norte","lat":-6.0675,"lon":-49.902,"populacao":176582,"n_benef":18992,"valor_nominal":32.7634,"valor_2021":52.5539,"pbfPerBenef":2767.16,"pbfPerCapita":297.62,"idhm_2010":0.715,"linha_pobreza_2010":22.18,"_source":"fallback"},{"Ano":2013,"cod_municipio":"1600055","municipio":"Mazagão","uf":"AP","regiao":"Norte","lat":-0.1153,"lon":-51.289,"populacao":4761,"n_benef":725,"valor_nominal":1.3684,"valor_2021":2.195,"pbfPerBenef":3027.53,"pbfPerCapita":461.03,"idhm_2010":0.598,"linha_pobreza_2010":40.18,"_source":"fallback"},{"Ano":2013,"cod_municipio":"1600303","municipio":"Macapá","uf":"AP","regiao":"Norte","lat":0.0389,"lon":-51.0664,"populacao":437256,"n_benef":35719,"valor_nominal":67.3413,"valor_2021":108.0185,"pbfPerBenef":3024.12,"pbfPerCapita":247.04,"idhm_2010":0.733,"linha_pobreza_2010":21.53,"_source":"fallback"},{"Ano":2013,"cod_municipio":"1700301","municipio":"Araguaína","uf":"TO","regiao":"Norte","lat":-7.1908,"lon":-48.2076,"populacao":5820,"n_benef":842,"valor_nominal":1.3115,"valor_2021":2.1037,"pbfPerBenef":2498.47,"pbfPerCapita":361.46,"idhm_2010":0.752,"linha_pobreza_2010":24.43,"_source":"fallback"},{"Ano":2013,"cod_municipio":"1709500","municipio":"Araguaína","uf":"TO","regiao":"Norte","lat":-7.1908,"lon":-48.2076,"populacao":81792,"n_benef":11833,"valor_nominal":18.4314,"valor_2021":29.5648,"pbfPerBenef":2498.5,"pbfPerCapita":361.46,"idhm_2010":0.752,"linha_pobreza_2010":24.43,"_source":"fallback"},{"Ano":2013,"cod_municipio":"1721000","municipio":"Palmas","uf":"TO","regiao":"Norte","lat":-10.1843,"lon":-48.3338,"populacao":257904,"n_benef":26285,"valor_nominal":40.9414,"valor_2021":65.6718,"pbfPerBenef":2498.45,"pbfPerCapita":254.64,"idhm_2010":0.788,"linha_pobreza_2010":17.21,"_source":"fallback"},{"Ano":2013,"cod_municipio":"2103000","municipio":"Caxias","uf":"MA","regiao":"Nordeste","lat":-4.8606,"lon":-43.3568,"populacao":159396,"n_benef":37128,"valor_nominal":68.3482,"valor_2021":109.6336,"pbfPerBenef":2952.85,"pbfPerCapita":687.81,"idhm_2010":0.624,"linha_pobreza_2010":46.58,"_source":"fallback"},{"Ano":2013,"cod_municipio":"2105302","municipio":"Imperatriz","uf":"MA","regiao":"Nordeste","lat":-5.526,"lon":-47.496,"populacao":251468,"n_benef":40755,"valor_nominal":75.026,"valor_2021":120.3451,"pbfPerBenef":2952.89,"pbfPerCapita":478.57,"idhm_2010":0.731,"linha_pobreza_2010":32.41,"_source":"fallback"},{"Ano":2013,"cod_municipio":"2111300","municipio":"São Luís","uf":"MA","regiao":"Nordeste","lat":-2.5306,"lon":-44.3068,"populacao":1053922,"n_benef":151731,"valor_nominal":279.3188,"valor_2021":448.04,"pbfPerBenef":2952.86,"pbfPerCapita":425.12,"idhm_2010":0.768,"linha_pobreza_2010":28.79,"_source":"fallback"},{"Ano":2013,"cod_municipio":"2111409","municipio":"São José de Ribamar","uf":"MA","regiao":"Nordeste","lat":-2.5611,"lon":-44.0541,"populacao":19510,"n_benef":3165,"valor_nominal":5.828,"valor_2021":9.3484,"pbfPerBenef":2953.69,"pbfPerCapita":479.16,"idhm_2010":0.681,"linha_pobreza_2010":32.45,"_source":"fallback"},{"Ano":2013,"cod_municipio":"2207702","municipio":"Parnaíba","uf":"PI","regiao":"Nordeste","lat":-2.905,"lon":-41.7765,"populacao":148832,"n_benef":31808,"valor_nominal":55.5082,"valor_2021":89.0376,"pbfPerBenef":2799.22,"pbfPerCapita":598.24,"idhm_2010":0.687,"linha_pobreza_2010":38.76,"_source":"fallback"},{"Ano":2013,"cod_municipio":"2211001","municipio":"Teresina","uf":"PI","regiao":"Nordeste","lat":-5.0892,"lon":-42.8019,"populacao":836475,"n_benef":128361,"valor_nominal":223.9974,"valor_2021":359.302,"pbfPerBenef":2799.15,"pbfPerCapita":429.54,"idhm_2010":0.751,"linha_pobreza_2010":27.83,"_source":"fallback"},{"Ano":2013,"cod_municipio":"2304251","municipio":"Sobral","uf":"CE","regiao":"Nordeste","lat":-3.6886,"lon":-40.3494,"populacao":23344,"n_benef":3365,"valor_nominal":5.2757,"valor_2021":8.4624,"pbfPerBenef":2514.83,"pbfPerCapita":362.51,"idhm_2010":0.714,"linha_pobreza_2010":30.18,"_source":"fallback"},{"Ano":2013,"cod_municipio":"2304400","municipio":"Fortaleza","uf":"CE","regiao":"Nordeste","lat":-3.7172,"lon":-38.5433,"populacao":2551806,"n_benef":357238,"valor_nominal":560.0757,"valor_2021":898.3869,"pbfPerBenef":2514.81,"pbfPerCapita":352.06,"idhm_2010":0.754,"linha_pobreza_2010":29.31,"_source":"fallback"},{"Ano":2013,"cod_municipio":"2306405","municipio":"Iguatu","uf":"CE","regiao":"Nordeste","lat":-6.359,"lon":-39.2986,"populacao":122220,"n_benef":22720,"valor_nominal":35.6204,"valor_2021":57.1367,"pbfPerBenef":2514.82,"pbfPerCapita":467.49,"idhm_2010":0.677,"linha_pobreza_2010":38.92,"_source":"fallback"},{"Ano":2013,"cod_municipio":"2307650","municipio":"Juazeiro do Norte","uf":"CE","regiao":"Nordeste","lat":-7.2128,"lon":-39.3151,"populacao":217922,"n_benef":34817,"valor_nominal":54.5859,"valor_2021":87.5583,"pbfPerBenef":2514.81,"pbfPerCapita":401.79,"idhm_2010":0.694,"linha_pobreza_2010":33.45,"_source":"fallback"},{"Ano":2013,"cod_municipio":"2408003","municipio":"Mossoró","uf":"RN","regiao":"Nordeste","lat":-5.1875,"lon":-37.3439,"populacao":280314,"n_benef":39298,"valor_nominal":59.9488,"valor_2021":96.1606,"pbfPerBenef":2446.96,"pbfPerCapita":343.05,"idhm_2010":0.72,"linha_pobreza_2010":32.08,"_source":"fallback"},{"Ano":2013,"cod_municipio":"2408102","municipio":"Natal","uf":"RN","regiao":"Nordeste","lat":-5.7945,"lon":-35.211,"populacao":853928,"n_benef":101243,"valor_nominal":154.4445,"valor_2021":247.736,"pbfPerBenef":2446.94,"pbfPerCapita":290.11,"idhm_2010":0.763,"linha_pobreza_2010":27.13,"_source":"fallback"},{"Ano":2013,"cod_municipio":"2504009","municipio":"Campina Grande","uf":"PB","regiao":"Nordeste","lat":-7.2306,"lon":-35.8811,"populacao":400002,"n_benef":63605,"valor_nominal":103.0339,"valor_2021":165.271,"pbfPerBenef":2598.4,"pbfPerCapita":413.18,"idhm_2010":0.72,"linha_pobreza_2010":33.21,"_source":"fallback"},{"Ano":2013,"cod_municipio":"2507507","municipio":"João Pessoa","uf":"PB","regiao":"Nordeste","lat":-7.1195,"lon":-34.845,"populacao":769607,"n_benef":110070,"valor_nominal":178.3008,"valor_2021":286.0026,"pbfPerBenef":2598.37,"pbfPerCapita":371.62,"idhm_2010":0.763,"linha_pobreza_2010":29.87,"_source":"fallback"},{"Ano":2013,"cod_municipio":"2607901","municipio":"Caruaru","uf":"PE","regiao":"Nordeste","lat":-8.2829,"lon":-35.9763,"populacao":675599,"n_benef":110732,"valor_nominal":170.51,"valor_2021":273.5057,"pbfPerBenef":2469.98,"pbfPerCapita":404.83,"idhm_2010":0.677,"linha_pobreza_2010":38.74,"_source":"fallback"},{"Ano":2013,"cod_municipio":"2609402","municipio":"Olinda","uf":"PE","regiao":"Nordeste","lat":-8.0089,"lon":-34.8553,"populacao":59836,"n_benef":7245,"valor_nominal":11.1566,"valor_2021":17.8958,"pbfPerBenef":2470.08,"pbfPerCapita":299.08,"idhm_2010":0.735,"linha_pobreza_2010":28.62,"_source":"fallback"},{"Ano":2013,"cod_municipio":"2611101","municipio":"Paulista","uf":"PE","regiao":"Nordeste","lat":-7.9408,"lon":-34.8728,"populacao":319893,"n_benef":37096,"valor_nominal":57.1235,"valor_2021":91.6287,"pbfPerBenef":2470.04,"pbfPerCapita":286.44,"idhm_2010":0.732,"linha_pobreza_2010":27.41,"_source":"fallback"},{"Ano":2013,"cod_municipio":"2611606","municipio":"Recife","uf":"PE","regiao":"Nordeste","lat":-8.0476,"lon":-34.877,"populacao":1599513,"n_benef":219326,"valor_nominal":337.7287,"valor_2021":541.7322,"pbfPerBenef":2469.99,"pbfPerCapita":338.69,"idhm_2010":0.772,"linha_pobreza_2010":32.41,"_source":"fallback"},{"Ano":2013,"cod_municipio":"2613602","municipio":"Petrolina","uf":"PE","regiao":"Nordeste","lat":-9.3891,"lon":-40.503,"populacao":33105,"n_benef":5067,"valor_nominal":7.803,"valor_2021":12.5164,"pbfPerBenef":2470.18,"pbfPerCapita":378.08,"idhm_2010":0.697,"linha_pobreza_2010":36.18,"_source":"fallback"},{"Ano":2013,"cod_municipio":"2702306","municipio":"Arapiraca","uf":"AL","regiao":"Nordeste","lat":-9.7521,"lon":-36.6612,"populacao":55648,"n_benef":10304,"valor_nominal":16.5539,"valor_2021":26.5532,"pbfPerBenef":2576.98,"pbfPerCapita":477.16,"idhm_2010":0.649,"linha_pobreza_2010":42.37,"_source":"fallback"},{"Ano":2013,"cod_municipio":"2704302","municipio":"Maceió","uf":"AL","regiao":"Nordeste","lat":-9.6498,"lon":-35.7089,"populacao":996733,"n_benef":147852,"valor_nominal":237.5102,"valor_2021":380.9771,"pbfPerBenef":2576.75,"pbfPerCapita":382.23,"idhm_2010":0.721,"linha_pobreza_2010":33.94,"_source":"fallback"},{"Ano":2013,"cod_municipio":"2704708","municipio":"Palmeira dos Índios","uf":"AL","regiao":"Nordeste","lat":-9.4061,"lon":-36.628,"populacao":49853,"n_benef":8436,"valor_nominal":13.5525,"valor_2021":21.7388,"pbfPerBenef":2576.9,"pbfPerCapita":436.06,"idhm_2010":0.633,"linha_pobreza_2010":38.72,"_source":"fallback"},{"Ano":2013,"cod_municipio":"2800100","municipio":"Itabaiana","uf":"SE","regiao":"Nordeste","lat":-10.6843,"lon":-37.425,"populacao":2358,"n_benef":363,"valor_nominal":0.5607,"valor_2021":0.8995,"pbfPerBenef":2477.84,"pbfPerCapita":381.45,"idhm_2010":0.659,"linha_pobreza_2010":32.83,"_source":"fallback"},{"Ano":2013,"cod_municipio":"2800308","municipio":"Aracaju","uf":"SE","regiao":"Nordeste","lat":-10.9472,"lon":-37.0731,"populacao":614577,"n_benef":81989,"valor_nominal":126.5172,"valor_2021":202.9394,"pbfPerBenef":2475.2,"pbfPerCapita":330.21,"idhm_2010":0.77,"linha_pobreza_2010":28.42,"_source":"fallback"},{"Ano":2013,"cod_municipio":"2806701","municipio":"Nossa Senhora do Socorro","uf":"SE","regiao":"Nordeste","lat":-10.8554,"lon":-37.1264,"populacao":84620,"n_benef":15296,"valor_nominal":23.6046,"valor_2021":37.8628,"pbfPerBenef":2475.34,"pbfPerCapita":447.44,"idhm_2010":0.664,"linha_pobreza_2010":38.51,"_source":"fallback"},{"Ano":2013,"cod_municipio":"2900702","municipio":"Alagoinhas","uf":"BA","regiao":"Nordeste","lat":-12.1356,"lon":-38.4192,"populacao":152570,"n_benef":20975,"valor_nominal":33.3009,"valor_2021":53.4162,"pbfPerBenef":2546.66,"pbfPerCapita":350.11,"idhm_2010":0.683,"linha_pobreza_2010":32.58,"_source":"fallback"},{"Ano":2013,"cod_municipio":"2910800","municipio":"Camaçari","uf":"BA","regiao":"Nordeste","lat":-12.6973,"lon":-38.3242,"populacao":606139,"n_benef":91082,"valor_nominal":144.6041,"valor_2021":231.9515,"pbfPerBenef":2546.62,"pbfPerCapita":382.67,"idhm_2010":0.694,"linha_pobreza_2010":35.61,"_source":"fallback"},{"Ano":2013,"cod_municipio":"2918407","municipio":"Feira de Santana","uf":"BA","regiao":"Nordeste","lat":-12.2664,"lon":-38.9663,"populacao":214748,"n_benef":30067,"valor_nominal":47.7355,"valor_2021":76.57,"pbfPerBenef":2546.65,"pbfPerCapita":356.56,"idhm_2010":0.712,"linha_pobreza_2010":33.18,"_source":"fallback"},{"Ano":2013,"cod_municipio":"2927408","municipio":"Salvador","uf":"BA","regiao":"Nordeste","lat":-12.9777,"lon":-38.5016,"populacao":2883682,"n_benef":375278,"valor_nominal":595.7967,"valor_2021":955.685,"pbfPerBenef":2546.61,"pbfPerCapita":331.41,"idhm_2010":0.759,"linha_pobreza_2010":30.84,"_source":"fallback"},{"Ano":2013,"cod_municipio":"2933307","municipio":"Vitória da Conquista","uf":"BA","regiao":"Nordeste","lat":-14.8615,"lon":-40.8442,"populacao":336987,"n_benef":54633,"valor_nominal":86.7375,"valor_2021":139.1309,"pbfPerBenef":2546.65,"pbfPerCapita":412.87,"idhm_2010":0.678,"linha_pobreza_2010":38.42,"_source":"fallback"},{"Ano":2013,"cod_municipio":"3106200","municipio":"Belo Horizonte","uf":"MG","regiao":"Sudeste","lat":-19.9167,"lon":-43.9345,"populacao":2479165,"n_benef":156525,"valor_nominal":216.2679,"valor_2021":346.9036,"pbfPerBenef":2216.28,"pbfPerCapita":139.93,"idhm_2010":0.81,"linha_pobreza_2010":11.83,"_source":"fallback"},{"Ano":2013,"cod_municipio":"3118007","municipio":"Conselheiro Lafaiete","uf":"MG","regiao":"Sudeste","lat":-20.6602,"lon":-43.7864,"populacao":51709,"n_benef":5086,"valor_nominal":7.0274,"valor_2021":11.2722,"pbfPerBenef":2216.33,"pbfPerCapita":217.99,"idhm_2010":0.731,"linha_pobreza_2010":18.43,"_source":"fallback"},{"Ano":2013,"cod_municipio":"3118601","municipio":"Contagem","uf":"MG","regiao":"Sudeste","lat":-19.932,"lon":-44.0537,"populacao":637961,"n_benef":50220,"valor_nominal":69.3886,"valor_2021":111.3024,"pbfPerBenef":2216.3,"pbfPerCapita":174.47,"idhm_2010":0.756,"linha_pobreza_2010":14.75,"_source":"fallback"},{"Ano":2013,"cod_municipio":"3127701","municipio":"Divinópolis","uf":"MG","regiao":"Sudeste","lat":-20.1393,"lon":-44.8829,"populacao":275568,"n_benef":20472,"valor_nominal":28.2859,"valor_2021":45.3719,"pbfPerBenef":2216.29,"pbfPerCapita":164.65,"idhm_2010":0.764,"linha_pobreza_2010":13.92,"_source":"fallback"},{"Ano":2013,"cod_municipio":"3132404","municipio":"Lavras","uf":"MG","regiao":"Sudeste","lat":-21.245,"lon":-44.9933,"populacao":94940,"n_benef":6039,"valor_nominal":8.345,"valor_2021":13.3858,"pbfPerBenef":2216.56,"pbfPerCapita":140.99,"idhm_2010":0.782,"linha_pobreza_2010":11.92,"_source":"fallback"},{"Ano":2013,"cod_municipio":"3136702","municipio":"Juiz de Fora","uf":"MG","regiao":"Sudeste","lat":-21.7642,"lon":-43.3503,"populacao":545942,"n_benef":45569,"valor_nominal":62.963,"valor_2021":100.9955,"pbfPerBenef":2216.32,"pbfPerCapita":184.99,"idhm_2010":0.778,"linha_pobreza_2010":15.64,"_source":"fallback"},{"Ano":2013,"cod_municipio":"3170206","municipio":"Uberlândia","uf":"MG","regiao":"Sudeste","lat":-18.9128,"lon":-48.2755,"populacao":646673,"n_benef":42830,"valor_nominal":59.1777,"valor_2021":94.9238,"pbfPerBenef":2216.29,"pbfPerCapita":146.79,"idhm_2010":0.789,"linha_pobreza_2010":12.41,"_source":"fallback"},{"Ano":2013,"cod_municipio":"3205002","municipio":"Serra","uf":"ES","regiao":"Sudeste","lat":-20.1289,"lon":-40.3076,"populacao":467318,"n_benef":35676,"valor_nominal":45.4925,"valor_2021":72.9721,"pbfPerBenef":2045.41,"pbfPerCapita":156.15,"idhm_2010":0.739,"linha_pobreza_2010":17.83,"_source":"fallback"},{"Ano":2013,"cod_municipio":"3205200","municipio":"Vila Velha","uf":"ES","regiao":"Sudeste","lat":-20.3293,"lon":-40.2925,"populacao":458489,"n_benef":28053,"valor_nominal":35.7715,"valor_2021":57.3792,"pbfPerBenef":2045.38,"pbfPerCapita":125.15,"idhm_2010":0.8,"linha_pobreza_2010":14.29,"_source":"fallback"},{"Ano":2013,"cod_municipio":"3205309","municipio":"Vitória","uf":"ES","regiao":"Sudeste","lat":-20.2976,"lon":-40.2958,"populacao":348268,"n_benef":18595,"valor_nominal":23.7114,"valor_2021":38.0341,"pbfPerBenef":2045.39,"pbfPerCapita":109.21,"idhm_2010":0.845,"linha_pobreza_2010":12.47,"_source":"fallback"},{"Ano":2013,"cod_municipio":"3303302","municipio":"Niterói","uf":"RJ","regiao":"Sudeste","lat":-22.8833,"lon":-43.1037,"populacao":494200,"n_benef":22989,"valor_nominal":32.7464,"valor_2021":52.5267,"pbfPerBenef":2284.86,"pbfPerCapita":106.29,"idhm_2010":0.837,"linha_pobreza_2010":11.41,"_source":"fallback"},{"Ano":2013,"cod_municipio":"3303500","municipio":"Macaé","uf":"RJ","regiao":"Sudeste","lat":-22.3704,"lon":-41.7889,"populacao":804815,"n_benef":45084,"valor_nominal":64.2181,"valor_2021":103.0088,"pbfPerBenef":2284.82,"pbfPerCapita":127.99,"idhm_2010":0.764,"linha_pobreza_2010":13.74,"_source":"fallback"},{"Ano":2013,"cod_municipio":"3303906","municipio":"Nova Iguaçu","uf":"RJ","regiao":"Sudeste","lat":-22.7595,"lon":-43.4517,"populacao":297888,"n_benef":21654,"valor_nominal":30.8446,"valor_2021":49.4761,"pbfPerBenef":2284.85,"pbfPerCapita":166.09,"idhm_2010":0.713,"linha_pobreza_2010":17.83,"_source":"fallback"},{"Ano":2013,"cod_municipio":"3304144","municipio":"Petrópolis","uf":"RJ","regiao":"Sudeste","lat":-22.5052,"lon":-43.1786,"populacao":141753,"n_benef":9443,"valor_nominal":13.4511,"valor_2021":21.5762,"pbfPerBenef":2284.89,"pbfPerCapita":152.21,"idhm_2010":0.745,"linha_pobreza_2010":16.34,"_source":"fallback"},{"Ano":2013,"cod_municipio":"3304557","municipio":"Rio de Janeiro","uf":"RJ","regiao":"Sudeste","lat":-22.9068,"lon":-43.1729,"populacao":6429923,"n_benef":383267,"valor_nominal":545.9186,"valor_2021":875.6782,"pbfPerBenef":2284.77,"pbfPerCapita":136.19,"idhm_2010":0.799,"linha_pobreza_2010":14.62,"_source":"fallback"},{"Ano":2013,"cod_municipio":"3304904","municipio":"São Gonçalo","uf":"RJ","regiao":"Sudeste","lat":-22.8267,"lon":-43.0537,"populacao":1025507,"n_benef":70743,"valor_nominal":100.7659,"valor_2021":161.6331,"pbfPerBenef":2284.79,"pbfPerCapita":157.61,"idhm_2010":0.739,"linha_pobreza_2010":16.92,"_source":"fallback"},{"Ano":2013,"cod_municipio":"3501608","municipio":"Americana","uf":"SP","regiao":"Sudeste","lat":-22.7392,"lon":-47.3314,"populacao":224551,"n_benef":7816,"valor_nominal":9.6825,"valor_2021":15.5311,"pbfPerBenef":1987.09,"pbfPerCapita":69.17,"idhm_2010":0.811,"linha_pobreza_2010":9.62,"_source":"fallback"},{"Ano":2013,"cod_municipio":"3506003","municipio":"Bauru","uf":"SP","regiao":"Sudeste","lat":-22.3147,"lon":-49.0606,"populacao":362062,"n_benef":14857,"valor_nominal":18.4031,"valor_2021":29.5194,"pbfPerBenef":1986.9,"pbfPerCapita":81.53,"idhm_2010":0.801,"linha_pobreza_2010":11.34,"_source":"fallback"},{"Ano":2013,"cod_municipio":"3509502","municipio":"Campinas","uf":"SP","regiao":"Sudeste","lat":-22.9099,"lon":-47.0626,"populacao":1144862,"n_benef":46896,"valor_nominal":58.0892,"valor_2021":93.1776,"pbfPerBenef":1986.9,"pbfPerCapita":81.39,"idhm_2010":0.805,"linha_pobreza_2010":11.32,"_source":"fallback"},{"Ano":2013,"cod_municipio":"3530607","municipio":"Mauá","uf":"SP","regiao":"Sudeste","lat":-23.6678,"lon":-46.4613,"populacao":414907,"n_benef":23601,"valor_nominal":29.2347,"valor_2021":46.8938,"pbfPerBenef":1986.94,"pbfPerCapita":113.02,"idhm_2010":0.766,"linha_pobreza_2010":15.72,"_source":"fallback"},{"Ano":2013,"cod_municipio":"3534401","municipio":"Osasco","uf":"SP","regiao":"Sudeste","lat":-23.532,"lon":-46.7919,"populacao":691652,"n_benef":37267,"valor_nominal":46.1613,"valor_2021":74.0448,"pbfPerBenef":1986.87,"pbfPerCapita":107.05,"idhm_2010":0.776,"linha_pobreza_2010":14.89,"_source":"fallback"},{"Ano":2013,"cod_municipio":"3539806","municipio":"Praia Grande","uf":"SP","regiao":"Sudeste","lat":-24.0058,"lon":-46.4028,"populacao":112015,"n_benef":7044,"valor_nominal":8.7261,"valor_2021":13.9971,"pbfPerBenef":1987.1,"pbfPerCapita":124.96,"idhm_2010":0.754,"linha_pobreza_2010":17.38,"_source":"fallback"},{"Ano":2013,"cod_municipio":"3543402","municipio":"Ribeirão Preto","uf":"SP","regiao":"Sudeste","lat":-21.1775,"lon":-47.8103,"populacao":649556,"n_benef":28159,"valor_nominal":34.8794,"valor_2021":55.9481,"pbfPerBenef":1986.86,"pbfPerCapita":86.13,"idhm_2010":0.8,"linha_pobreza_2010":11.98,"_source":"fallback"},{"Ano":2013,"cod_municipio":"3543907","municipio":"Santos","uf":"SP","regiao":"Sudeste","lat":-23.9608,"lon":-46.3336,"populacao":196821,"n_benef":8140,"valor_nominal":10.0835,"valor_2021":16.1745,"pbfPerBenef":1987.03,"pbfPerCapita":82.18,"idhm_2010":0.84,"linha_pobreza_2010":11.43,"_source":"fallback"},{"Ano":2013,"cod_municipio":"3548500","municipio":"São José do Rio Preto","uf":"SP","regiao":"Sudeste","lat":-20.8197,"lon":-49.3795,"populacao":433153,"n_benef":16975,"valor_nominal":21.0264,"valor_2021":33.7273,"pbfPerBenef":1986.88,"pbfPerCapita":77.86,"idhm_2010":0.797,"linha_pobreza_2010":10.83,"_source":"fallback"},{"Ano":2013,"cod_municipio":"3548708","municipio":"São José dos Campos","uf":"SP","regiao":"Sudeste","lat":-23.2237,"lon":-45.9009,"populacao":805895,"n_benef":32924,"valor_nominal":40.7819,"valor_2021":65.4161,"pbfPerBenef":1986.88,"pbfPerCapita":81.17,"idhm_2010":0.807,"linha_pobreza_2010":11.29,"_source":"fallback"},{"Ano":2013,"cod_municipio":"3550308","municipio":"São Paulo","uf":"SP","regiao":"Sudeste","lat":-23.5505,"lon":-46.6333,"populacao":11821873,"n_benef":420517,"valor_nominal":520.8771,"valor_2021":835.5105,"pbfPerBenef":1986.87,"pbfPerCapita":70.67,"idhm_2010":0.805,"linha_pobreza_2010":9.83,"_source":"fallback"},{"Ano":2013,"cod_municipio":"3551009","municipio":"São Bernardo do Campo","uf":"SP","regiao":"Sudeste","lat":-23.6939,"lon":-46.565,"populacao":350465,"n_benef":17640,"valor_nominal":21.8508,"valor_2021":35.0497,"pbfPerBenef":1986.94,"pbfPerCapita":100.01,"idhm_2010":0.805,"linha_pobreza_2010":13.91,"_source":"fallback"},{"Ano":2013,"cod_municipio":"3552205","municipio":"Sorocaba","uf":"SP","regiao":"Sudeste","lat":-23.5015,"lon":-47.4526,"populacao":629231,"n_benef":27733,"valor_nominal":34.3521,"valor_2021":55.1023,"pbfPerBenef":1986.88,"pbfPerCapita":87.57,"idhm_2010":0.798,"linha_pobreza_2010":12.18,"_source":"fallback"},{"Ano":2013,"cod_municipio":"3552403","municipio":"São Vicente","uf":"SP","regiao":"Sudeste","lat":-23.9619,"lon":-46.3919,"populacao":258556,"n_benef":14230,"valor_nominal":17.627,"valor_2021":28.2746,"pbfPerBenef":1986.97,"pbfPerCapita":109.36,"idhm_2010":0.768,"linha_pobreza_2010":15.21,"_source":"fallback"},{"Ano":2013,"cod_municipio":"4106902","municipio":"Curitiba","uf":"PR","regiao":"Sul","lat":-25.429,"lon":-49.2671,"populacao":1848946,"n_benef":79504,"valor_nominal":98.6815,"valor_2021":158.2897,"pbfPerBenef":1990.96,"pbfPerCapita":85.61,"idhm_2010":0.823,"linha_pobreza_2010":9.83,"_source":"fallback"},{"Ano":2013,"cod_municipio":"4108304","municipio":"Foz do Iguaçu","uf":"PR","regiao":"Sul","lat":-25.5478,"lon":-54.5882,"populacao":263508,"n_benef":17198,"valor_nominal":21.3462,"valor_2021":34.2403,"pbfPerBenef":1990.95,"pbfPerCapita":129.94,"idhm_2010":0.751,"linha_pobreza_2010":14.92,"_source":"fallback"},{"Ano":2013,"cod_municipio":"4113700","municipio":"Londrina","uf":"PR","regiao":"Sul","lat":-23.3105,"lon":-51.1628,"populacao":537566,"n_benef":30992,"valor_nominal":38.4685,"valor_2021":61.7052,"pbfPerBenef":1991.01,"pbfPerCapita":114.79,"idhm_2010":0.778,"linha_pobreza_2010":13.18,"_source":"fallback"},{"Ano":2013,"cod_municipio":"4115200","municipio":"Maringá","uf":"PR","regiao":"Sul","lat":-23.4205,"lon":-51.9333,"populacao":385753,"n_benef":19253,"valor_nominal":23.8975,"valor_2021":38.3327,"pbfPerBenef":1991.0,"pbfPerCapita":99.37,"idhm_2010":0.808,"linha_pobreza_2010":11.41,"_source":"fallback"},{"Ano":2013,"cod_municipio":"4119905","municipio":"Ponta Grossa","uf":"PR","regiao":"Sul","lat":-25.0945,"lon":-50.1633,"populacao":331084,"n_benef":19899,"valor_nominal":24.6992,"valor_2021":39.6187,"pbfPerBenef":1990.99,"pbfPerCapita":119.66,"idhm_2010":0.763,"linha_pobreza_2010":13.74,"_source":"fallback"},{"Ano":2013,"cod_municipio":"4128203","municipio":"Toledo","uf":"PR","regiao":"Sul","lat":-24.7142,"lon":-53.743,"populacao":55467,"n_benef":2892,"valor_nominal":3.5898,"valor_2021":5.7582,"pbfPerBenef":1991.07,"pbfPerCapita":103.81,"idhm_2010":0.768,"linha_pobreza_2010":11.92,"_source":"fallback"},{"Ano":2013,"cod_municipio":"4202008","municipio":"Balneário Camboriú","uf":"SC","regiao":"Sul","lat":-26.9909,"lon":-48.6356,"populacao":120926,"n_benef":3137,"valor_nominal":4.0759,"valor_2021":6.538,"pbfPerBenef":2084.15,"pbfPerCapita":54.07,"idhm_2010":0.845,"linha_pobreza_2010":8.76,"_source":"fallback"},{"Ano":2013,"cod_municipio":"4202404","municipio":"Blumenau","uf":"SC","regiao":"Sul","lat":-26.9194,"lon":-49.0661,"populacao":329082,"n_benef":9034,"valor_nominal":11.7378,"valor_2021":18.828,"pbfPerBenef":2084.13,"pbfPerCapita":57.21,"idhm_2010":0.806,"linha_pobreza_2010":9.27,"_source":"fallback"},{"Ano":2013,"cod_municipio":"4205407","municipio":"Florianópolis","uf":"SC","regiao":"Sul","lat":-27.5949,"lon":-48.5482,"populacao":453285,"n_benef":11289,"valor_nominal":14.668,"valor_2021":23.5281,"pbfPerBenef":2084.17,"pbfPerCapita":51.91,"idhm_2010":0.847,"linha_pobreza_2010":8.41,"_source":"fallback"},{"Ano":2013,"cod_municipio":"4209102","municipio":"Joinville","uf":"SC","regiao":"Sul","lat":-26.3045,"lon":-48.8487,"populacao":546981,"n_benef":15923,"valor_nominal":20.6885,"valor_2021":33.1853,"pbfPerBenef":2084.11,"pbfPerCapita":60.67,"idhm_2010":0.809,"linha_pobreza_2010":9.83,"_source":"fallback"},{"Ano":2013,"cod_municipio":"4216602","municipio":"São José","uf":"SC","regiao":"Sul","lat":-27.6113,"lon":-48.636,"populacao":224779,"n_benef":7209,"valor_nominal":9.3667,"valor_2021":15.0247,"pbfPerBenef":2084.15,"pbfPerCapita":66.84,"idhm_2010":0.809,"linha_pobreza_2010":10.83,"_source":"fallback"},{"Ano":2013,"cod_municipio":"4303103","municipio":"Bagé","uf":"RS","regiao":"Sul","lat":-31.3314,"lon":-54.1067,"populacao":124472,"n_benef":7556,"valor_nominal":10.3527,"valor_2021":16.6062,"pbfPerBenef":2197.76,"pbfPerCapita":133.41,"idhm_2010":0.74,"linha_pobreza_2010":14.63,"_source":"fallback"},{"Ano":2013,"cod_municipio":"4304606","municipio":"Caxias do Sul","uf":"RS","regiao":"Sul","lat":-29.1689,"lon":-51.1796,"populacao":338531,"n_benef":12824,"valor_nominal":17.5715,"valor_2021":28.1854,"pbfPerBenef":2197.87,"pbfPerCapita":83.26,"idhm_2010":0.782,"linha_pobreza_2010":9.13,"_source":"fallback"},{"Ano":2013,"cod_municipio":"4314100","municipio":"Pelotas","uf":"RS","regiao":"Sul","lat":-31.7654,"lon":-52.3376,"populacao":194432,"n_benef":12771,"valor_nominal":17.498,"valor_2021":28.0675,"pbfPerBenef":2197.76,"pbfPerCapita":144.36,"idhm_2010":0.739,"linha_pobreza_2010":15.83,"_source":"fallback"},{"Ano":2013,"cod_municipio":"4314407","municipio":"Pelotas","uf":"RS","regiao":"Sul","lat":-31.7654,"lon":-52.3376,"populacao":341180,"n_benef":22410,"valor_nominal":30.7046,"valor_2021":49.2516,"pbfPerBenef":2197.75,"pbfPerCapita":144.36,"idhm_2010":0.739,"linha_pobreza_2010":15.83,"_source":"fallback"},{"Ano":2013,"cod_municipio":"4314902","municipio":"Porto Alegre","uf":"RS","regiao":"Sul","lat":-30.0331,"lon":-51.23,"populacao":1467816,"n_benef":66021,"valor_nominal":90.4565,"valor_2021":145.0963,"pbfPerBenef":2197.73,"pbfPerCapita":98.85,"idhm_2010":0.805,"linha_pobreza_2010":10.84,"_source":"fallback"},{"Ano":2013,"cod_municipio":"4318705","municipio":"Santa Maria","uf":"RS","regiao":"Sul","lat":-29.6868,"lon":-53.8149,"populacao":225520,"n_benef":11612,"valor_nominal":15.9109,"valor_2021":25.5219,"pbfPerBenef":2197.89,"pbfPerCapita":113.17,"idhm_2010":0.784,"linha_pobreza_2010":12.41,"_source":"fallback"},{"Ano":2013,"cod_municipio":"5002704","municipio":"Campo Grande","uf":"MS","regiao":"Centro-Oeste","lat":-20.4697,"lon":-54.6201,"populacao":832352,"n_benef":53344,"valor_nominal":74.0498,"valor_2021":118.7792,"pbfPerBenef":2226.67,"pbfPerCapita":142.7,"idhm_2010":0.784,"linha_pobreza_2010":11.83,"_source":"fallback"},{"Ano":2013,"cod_municipio":"5003702","municipio":"Dourados","uf":"MS","regiao":"Centro-Oeste","lat":-22.2231,"lon":-54.812,"populacao":207498,"n_benef":17907,"valor_nominal":24.8577,"valor_2021":39.873,"pbfPerBenef":2226.67,"pbfPerCapita":192.16,"idhm_2010":0.747,"linha_pobreza_2010":15.93,"_source":"fallback"},{"Ano":2013,"cod_municipio":"5103403","municipio":"Cuiabá","uf":"MT","regiao":"Centro-Oeste","lat":-15.6014,"lon":-56.0979,"populacao":569830,"n_benef":36476,"valor_nominal":50.2815,"valor_2021":80.6538,"pbfPerBenef":2211.15,"pbfPerCapita":141.54,"idhm_2010":0.785,"linha_pobreza_2010":11.42,"_source":"fallback"},{"Ano":2013,"cod_municipio":"5107602","municipio":"Várzea Grande","uf":"MT","regiao":"Centro-Oeste","lat":-15.6464,"lon":-56.1326,"populacao":208019,"n_benef":18457,"valor_nominal":25.4437,"valor_2021":40.8129,"pbfPerBenef":2211.24,"pbfPerCapita":196.2,"idhm_2010":0.734,"linha_pobreza_2010":15.83,"_source":"fallback"},{"Ano":2013,"cod_municipio":"5108402","municipio":"Rondonópolis","uf":"MT","regiao":"Centro-Oeste","lat":-16.4673,"lon":-54.6372,"populacao":262880,"n_benef":18286,"valor_nominal":25.2073,"valor_2021":40.4337,"pbfPerBenef":2211.18,"pbfPerCapita":153.81,"idhm_2010":0.755,"linha_pobreza_2010":12.41,"_source":"fallback"},{"Ano":2013,"cod_municipio":"5108501","municipio":"Sinop","uf":"MT","regiao":"Centro-Oeste","lat":-11.8606,"lon":-55.5025,"populacao":10561,"n_benef":759,"valor_nominal":1.047,"valor_2021":1.6794,"pbfPerBenef":2212.6,"pbfPerCapita":159.02,"idhm_2010":0.754,"linha_pobreza_2010":12.83,"_source":"fallback"},{"Ano":2013,"cod_municipio":"5201108","municipio":"Anápolis","uf":"GO","regiao":"Centro-Oeste","lat":-16.3267,"lon":-48.953,"populacao":357402,"n_benef":25882,"valor_nominal":35.0256,"valor_2021":56.1827,"pbfPerBenef":2170.72,"pbfPerCapita":157.2,"idhm_2010":0.737,"linha_pobreza_2010":12.41,"_source":"fallback"},{"Ano":2013,"cod_municipio":"5208707","municipio":"Goiânia","uf":"GO","regiao":"Centro-Oeste","lat":-16.6869,"lon":-49.2648,"populacao":1393575,"n_benef":79939,"valor_nominal":108.1785,"valor_2021":173.5232,"pbfPerBenef":2170.7,"pbfPerCapita":124.52,"idhm_2010":0.799,"linha_pobreza_2010":9.83,"_source":"fallback"},{"Ano":2013,"cod_municipio":"5215231","municipio":"Luziânia","uf":"GO","regiao":"Centro-Oeste","lat":-16.2517,"lon":-47.9501,"populacao":103085,"n_benef":11020,"valor_nominal":14.9134,"valor_2021":23.9218,"pbfPerBenef":2170.77,"pbfPerCapita":232.06,"idhm_2010":0.701,"linha_pobreza_2010":18.32,"_source":"fallback"},{"Ano":2013,"cod_municipio":"5219753","municipio":"Senador Canedo","uf":"GO","regiao":"Centro-Oeste","lat":-16.7053,"lon":-49.0928,"populacao":67993,"n_benef":6431,"valor_nominal":8.7037,"valor_2021":13.9611,"pbfPerBenef":2170.91,"pbfPerCapita":205.33,"idhm_2010":0.726,"linha_pobreza_2010":16.21,"_source":"fallback"},{"Ano":2013,"cod_municipio":"5300108","municipio":"Brasília","uf":"DF","regiao":"Centro-Oeste","lat":-15.7942,"lon":-47.8822,"populacao":2789761,"n_benef":116793,"valor_nominal":136.8821,"valor_2021":219.5652,"pbfPerBenef":1879.95,"pbfPerCapita":78.7,"idhm_2010":0.824,"linha_pobreza_2010":7.41,"_source":"fallback"},{"Ano":2014,"cod_municipio":"1100015","municipio":"Alta Floresta D'Oeste","uf":"RO","regiao":"Norte","lat":-11.9282,"lon":-61.9985,"populacao":25652,"n_benef":3142,"valor_nominal":4.9773,"valor_2021":7.503,"pbfPerBenef":2387.97,"pbfPerCapita":292.49,"idhm_2010":0.641,"linha_pobreza_2010":28.45,"_source":"fallback"},{"Ano":2014,"cod_municipio":"1100122","municipio":"Cacoal","uf":"RO","regiao":"Norte","lat":-11.4377,"lon":-61.4474,"populacao":129242,"n_benef":12148,"valor_nominal":19.2418,"valor_2021":29.0061,"pbfPerBenef":2387.72,"pbfPerCapita":224.43,"idhm_2010":0.718,"linha_pobreza_2010":21.83,"_source":"fallback"},{"Ano":2014,"cod_municipio":"1100205","municipio":"Porto Velho","uf":"RO","regiao":"Norte","lat":-8.7619,"lon":-63.9039,"populacao":494013,"n_benef":33886,"valor_nominal":53.6713,"valor_2021":80.9069,"pbfPerBenef":2387.62,"pbfPerCapita":163.77,"idhm_2010":0.736,"linha_pobreza_2010":15.93,"_source":"fallback"},{"Ano":2014,"cod_municipio":"1200013","municipio":"Acrelândia","uf":"AC","regiao":"Norte","lat":-9.8253,"lon":-66.8961,"populacao":13613,"n_benef":2245,"valor_nominal":5.5569,"valor_2021":8.3767,"pbfPerBenef":3731.27,"pbfPerCapita":615.35,"idhm_2010":0.604,"linha_pobreza_2010":32.67,"_source":"fallback"},{"Ano":2014,"cod_municipio":"1200401","municipio":"Rio Branco","uf":"AC","regiao":"Norte","lat":-9.9747,"lon":-67.8243,"populacao":363928,"n_benef":38673,"valor_nominal":95.718,"valor_2021":144.2904,"pbfPerBenef":3731.04,"pbfPerCapita":396.48,"idhm_2010":0.727,"linha_pobreza_2010":21.05,"_source":"fallback"},{"Ano":2014,"cod_municipio":"1302603","municipio":"Manaus","uf":"AM","regiao":"Norte","lat":-3.119,"lon":-60.0217,"populacao":2020301,"n_benef":202660,"valor_nominal":430.1772,"valor_2021":648.4721,"pbfPerBenef":3199.8,"pbfPerCapita":320.98,"idhm_2010":0.737,"linha_pobreza_2010":18.42,"_source":"fallback"},{"Ano":2014,"cod_municipio":"1303809","municipio":"Parintins","uf":"AM","regiao":"Norte","lat":-2.6283,"lon":-56.7351,"populacao":42342,"n_benef":7726,"valor_nominal":16.4016,"valor_2021":24.7247,"pbfPerBenef":3200.2,"pbfPerCapita":583.93,"idhm_2010":0.658,"linha_pobreza_2010":33.51,"_source":"fallback"},{"Ano":2014,"cod_municipio":"1400100","municipio":"Boa Vista","uf":"RR","regiao":"Norte","lat":2.8235,"lon":-60.6758,"populacao":314900,"n_benef":32249,"valor_nominal":61.531,"valor_2021":92.7551,"pbfPerBenef":2876.22,"pbfPerCapita":294.55,"idhm_2010":0.752,"linha_pobreza_2010":17.62,"_source":"fallback"},{"Ano":2014,"cod_municipio":"1400308","municipio":"Caracaraí","uf":"RR","regiao":"Norte","lat":1.8231,"lon":-61.1264,"populacao":16137,"n_benef":2507,"valor_nominal":4.7834,"valor_2021":7.2108,"pbfPerBenef":2876.25,"pbfPerCapita":446.85,"idhm_2010":0.624,"linha_pobreza_2010":26.73,"_source":"fallback"},{"Ano":2014,"cod_municipio":"1400407","municipio":"Caroebe","uf":"RR","regiao":"Norte","lat":0.8856,"lon":-59.6967,"populacao":9953,"n_benef":2251,"valor_nominal":4.2958,"valor_2021":6.4757,"pbfPerBenef":2876.81,"pbfPerCapita":650.63,"idhm_2010":0.547,"linha_pobreza_2010":38.92,"_source":"fallback"},{"Ano":2014,"cod_municipio":"1500107","municipio":"Abaetetuba","uf":"PA","regiao":"Norte","lat":-1.7197,"lon":-48.8783,"populacao":148873,"n_benef":30265,"valor_nominal":59.4925,"valor_2021":89.6823,"pbfPerBenef":2963.23,"pbfPerCapita":602.41,"idhm_2010":0.628,"linha_pobreza_2010":42.31,"_source":"fallback"},{"Ano":2014,"cod_municipio":"1501402","municipio":"Belém","uf":"PA","regiao":"Norte","lat":-1.4558,"lon":-48.5044,"populacao":1432844,"n_benef":161169,"valor_nominal":316.8137,"valor_2021":477.5819,"pbfPerBenef":2963.24,"pbfPerCapita":333.31,"idhm_2010":0.746,"linha_pobreza_2010":23.41,"_source":"fallback"},{"Ano":2014,"cod_municipio":"1505536","municipio":"Parauapebas","uf":"PA","regiao":"Norte","lat":-6.0675,"lon":-49.902,"populacao":183352,"n_benef":19540,"valor_nominal":38.4106,"valor_2021":57.9022,"pbfPerBenef":2963.26,"pbfPerCapita":315.8,"idhm_2010":0.715,"linha_pobreza_2010":22.18,"_source":"fallback"},{"Ano":2014,"cod_municipio":"1600055","municipio":"Mazagão","uf":"AP","regiao":"Norte","lat":-0.1153,"lon":-51.289,"populacao":4850,"n_benef":729,"valor_nominal":1.5029,"valor_2021":2.2655,"pbfPerBenef":3107.67,"pbfPerCapita":467.11,"idhm_2010":0.598,"linha_pobreza_2010":40.18,"_source":"fallback"},{"Ano":2014,"cod_municipio":"1600303","municipio":"Macapá","uf":"AP","regiao":"Norte","lat":0.0389,"lon":-51.0664,"populacao":446757,"n_benef":35997,"valor_nominal":74.1792,"valor_2021":111.8217,"pbfPerBenef":3106.42,"pbfPerCapita":250.3,"idhm_2010":0.733,"linha_pobreza_2010":21.53,"_source":"fallback"},{"Ano":2014,"cod_municipio":"1700301","municipio":"Araguaína","uf":"TO","regiao":"Norte","lat":-7.1908,"lon":-48.2076,"populacao":5987,"n_benef":805,"valor_nominal":1.4456,"valor_2021":2.1792,"pbfPerBenef":2707.06,"pbfPerCapita":363.99,"idhm_2010":0.752,"linha_pobreza_2010":24.43,"_source":"fallback"},{"Ano":2014,"cod_municipio":"1709500","municipio":"Araguaína","uf":"TO","regiao":"Norte","lat":-7.1908,"lon":-48.2076,"populacao":82762,"n_benef":11130,"valor_nominal":19.9835,"valor_2021":30.1242,"pbfPerBenef":2706.58,"pbfPerCapita":363.99,"idhm_2010":0.752,"linha_pobreza_2010":24.43,"_source":"fallback"},{"Ano":2014,"cod_municipio":"1721000","municipio":"Palmas","uf":"TO","regiao":"Norte","lat":-10.1843,"lon":-48.3338,"populacao":265409,"n_benef":25145,"valor_nominal":45.1455,"valor_2021":68.0547,"pbfPerBenef":2706.49,"pbfPerCapita":256.41,"idhm_2010":0.788,"linha_pobreza_2010":17.21,"_source":"fallback"},{"Ano":2014,"cod_municipio":"2103000","municipio":"Caxias","uf":"MA","regiao":"Nordeste","lat":-4.8606,"lon":-43.3568,"populacao":160291,"n_benef":37274,"valor_nominal":75.6726,"valor_2021":114.0729,"pbfPerBenef":3060.39,"pbfPerCapita":711.66,"idhm_2010":0.624,"linha_pobreza_2010":46.58,"_source":"fallback"},{"Ano":2014,"cod_municipio":"2105302","municipio":"Imperatriz","uf":"MA","regiao":"Nordeste","lat":-5.526,"lon":-47.496,"populacao":252320,"n_benef":40825,"valor_nominal":82.8821,"valor_2021":124.9409,"pbfPerBenef":3060.4,"pbfPerCapita":495.17,"idhm_2010":0.731,"linha_pobreza_2010":32.41,"_source":"fallback"},{"Ano":2014,"cod_municipio":"2111300","municipio":"São Luís","uf":"MA","regiao":"Nordeste","lat":-2.5306,"lon":-44.3068,"populacao":1064197,"n_benef":152956,"valor_nominal":310.523,"valor_2021":468.099,"pbfPerBenef":3060.35,"pbfPerCapita":439.86,"idhm_2010":0.768,"linha_pobreza_2010":28.79,"_source":"fallback"},{"Ano":2014,"cod_municipio":"2111409","municipio":"São José de Ribamar","uf":"MA","regiao":"Nordeste","lat":-2.5611,"lon":-44.0541,"populacao":18807,"n_benef":3046,"valor_nominal":6.1854,"valor_2021":9.3241,"pbfPerBenef":3061.11,"pbfPerCapita":495.78,"idhm_2010":0.681,"linha_pobreza_2010":32.45,"_source":"fallback"},{"Ano":2014,"cod_municipio":"2207702","municipio":"Parnaíba","uf":"PI","regiao":"Nordeste","lat":-2.905,"lon":-41.7765,"populacao":149348,"n_benef":30679,"valor_nominal":60.8553,"valor_2021":91.7366,"pbfPerBenef":2990.21,"pbfPerCapita":614.25,"idhm_2010":0.687,"linha_pobreza_2010":38.76,"_source":"fallback"},{"Ano":2014,"cod_municipio":"2211001","municipio":"Teresina","uf":"PI","regiao":"Nordeste","lat":-5.0892,"lon":-42.8019,"populacao":840600,"n_benef":123984,"valor_nominal":245.9337,"valor_2021":370.7336,"pbfPerBenef":2990.17,"pbfPerCapita":441.03,"idhm_2010":0.751,"linha_pobreza_2010":27.83,"_source":"fallback"},{"Ano":2014,"cod_municipio":"2304251","municipio":"Sobral","uf":"CE","regiao":"Nordeste","lat":-3.6886,"lon":-40.3494,"populacao":23514,"n_benef":3207,"valor_nominal":5.6654,"valor_2021":8.5404,"pbfPerBenef":2663.05,"pbfPerCapita":363.2,"idhm_2010":0.714,"linha_pobreza_2010":30.18,"_source":"fallback"},{"Ano":2014,"cod_municipio":"2304400","municipio":"Fortaleza","uf":"CE","regiao":"Nordeste","lat":-3.7172,"lon":-38.5433,"populacao":2571896,"n_benef":340714,"valor_nominal":601.8077,"valor_2021":907.1971,"pbfPerBenef":2662.64,"pbfPerCapita":352.73,"idhm_2010":0.754,"linha_pobreza_2010":29.31,"_source":"fallback"},{"Ano":2014,"cod_municipio":"2306405","municipio":"Iguatu","uf":"CE","regiao":"Nordeste","lat":-6.359,"lon":-39.2986,"populacao":123613,"n_benef":21744,"valor_nominal":38.4083,"valor_2021":57.8988,"pbfPerBenef":2662.75,"pbfPerCapita":468.39,"idhm_2010":0.677,"linha_pobreza_2010":38.92,"_source":"fallback"},{"Ano":2014,"cod_municipio":"2307650","municipio":"Juazeiro do Norte","uf":"CE","regiao":"Nordeste","lat":-7.2128,"lon":-39.3151,"populacao":219749,"n_benef":33223,"valor_nominal":58.6829,"valor_2021":88.4617,"pbfPerBenef":2662.67,"pbfPerCapita":402.56,"idhm_2010":0.694,"linha_pobreza_2010":33.45,"_source":"fallback"},{"Ano":2014,"cod_municipio":"2408003","municipio":"Mossoró","uf":"RN","regiao":"Nordeste","lat":-5.1875,"lon":-37.3439,"populacao":284288,"n_benef":37521,"valor_nominal":65.4376,"valor_2021":98.6442,"pbfPerBenef":2629.04,"pbfPerCapita":346.99,"idhm_2010":0.72,"linha_pobreza_2010":32.08,"_source":"fallback"},{"Ano":2014,"cod_municipio":"2408102","municipio":"Natal","uf":"RN","regiao":"Nordeste","lat":-5.7945,"lon":-35.211,"populacao":862044,"n_benef":96220,"valor_nominal":167.8085,"valor_2021":252.9635,"pbfPerBenef":2629.01,"pbfPerCapita":293.45,"idhm_2010":0.763,"linha_pobreza_2010":27.13,"_source":"fallback"},{"Ano":2014,"cod_municipio":"2504009","municipio":"Campina Grande","uf":"PB","regiao":"Nordeste","lat":-7.2306,"lon":-35.8811,"populacao":402912,"n_benef":61792,"valor_nominal":116.1207,"valor_2021":175.0466,"pbfPerBenef":2832.84,"pbfPerCapita":434.45,"idhm_2010":0.72,"linha_pobreza_2010":33.21,"_source":"fallback"},{"Ano":2014,"cod_municipio":"2507507","municipio":"João Pessoa","uf":"PB","regiao":"Nordeste","lat":-7.1195,"lon":-34.845,"populacao":780738,"n_benef":107695,"valor_nominal":202.3817,"valor_2021":305.081,"pbfPerBenef":2832.82,"pbfPerCapita":390.76,"idhm_2010":0.763,"linha_pobreza_2010":29.87,"_source":"fallback"},{"Ano":2014,"cod_municipio":"2607901","municipio":"Caruaru","uf":"PE","regiao":"Nordeste","lat":-8.2829,"lon":-35.9763,"populacao":680943,"n_benef":107541,"valor_nominal":185.0324,"valor_2021":278.9278,"pbfPerBenef":2593.69,"pbfPerCapita":409.62,"idhm_2010":0.677,"linha_pobreza_2010":38.74,"_source":"fallback"},{"Ano":2014,"cod_municipio":"2609402","municipio":"Olinda","uf":"PE","regiao":"Nordeste","lat":-8.0089,"lon":-34.8553,"populacao":60435,"n_benef":7051,"valor_nominal":12.1321,"valor_2021":18.2886,"pbfPerBenef":2593.75,"pbfPerCapita":302.62,"idhm_2010":0.735,"linha_pobreza_2010":28.62,"_source":"fallback"},{"Ano":2014,"cod_municipio":"2611101","municipio":"Paulista","uf":"PE","regiao":"Nordeste","lat":-7.9408,"lon":-34.8728,"populacao":326017,"n_benef":36429,"valor_nominal":62.6797,"valor_2021":94.4867,"pbfPerBenef":2593.72,"pbfPerCapita":289.82,"idhm_2010":0.732,"linha_pobreza_2010":27.41,"_source":"fallback"},{"Ano":2014,"cod_municipio":"2611606","municipio":"Recife","uf":"PE","regiao":"Nordeste","lat":-8.0476,"lon":-34.877,"populacao":1608488,"n_benef":212521,"valor_nominal":365.6573,"valor_2021":551.2115,"pbfPerBenef":2593.68,"pbfPerCapita":342.69,"idhm_2010":0.772,"linha_pobreza_2010":32.41,"_source":"fallback"},{"Ano":2014,"cod_municipio":"2613602","municipio":"Petrolina","uf":"PE","regiao":"Nordeste","lat":-9.3891,"lon":-40.503,"populacao":33188,"n_benef":4895,"valor_nominal":8.4222,"valor_2021":12.6961,"pbfPerBenef":2593.69,"pbfPerCapita":382.55,"idhm_2010":0.697,"linha_pobreza_2010":36.18,"_source":"fallback"},{"Ano":2014,"cod_municipio":"2702306","municipio":"Arapiraca","uf":"AL","regiao":"Nordeste","lat":-9.7521,"lon":-36.6612,"populacao":56153,"n_benef":10016,"valor_nominal":18.0539,"valor_2021":27.2155,"pbfPerBenef":2717.2,"pbfPerCapita":484.67,"idhm_2010":0.649,"linha_pobreza_2010":42.37,"_source":"fallback"},{"Ano":2014,"cod_municipio":"2704302","municipio":"Maceió","uf":"AL","regiao":"Nordeste","lat":-9.6498,"lon":-35.7089,"populacao":1005319,"n_benef":143641,"valor_nominal":258.9143,"valor_2021":390.3013,"pbfPerBenef":2717.2,"pbfPerCapita":388.24,"idhm_2010":0.721,"linha_pobreza_2010":33.94,"_source":"fallback"},{"Ano":2014,"cod_municipio":"2704708","municipio":"Palmeira dos Índios","uf":"AL","regiao":"Nordeste","lat":-9.4061,"lon":-36.628,"populacao":50512,"n_benef":8233,"valor_nominal":14.8412,"valor_2021":22.3725,"pbfPerBenef":2717.42,"pbfPerCapita":442.91,"idhm_2010":0.633,"linha_pobreza_2010":38.72,"_source":"fallback"},{"Ano":2014,"cod_municipio":"2800100","municipio":"Itabaiana","uf":"SE","regiao":"Nordeste","lat":-10.6843,"lon":-37.425,"populacao":2366,"n_benef":357,"valor_nominal":0.6088,"valor_2021":0.9178,"pbfPerBenef":2570.86,"pbfPerCapita":387.91,"idhm_2010":0.659,"linha_pobreza_2010":32.83,"_source":"fallback"},{"Ano":2014,"cod_municipio":"2800308","municipio":"Aracaju","uf":"SE","regiao":"Nordeste","lat":-10.9472,"lon":-37.0731,"populacao":623766,"n_benef":81665,"valor_nominal":138.9515,"valor_2021":209.4629,"pbfPerBenef":2564.9,"pbfPerCapita":335.8,"idhm_2010":0.77,"linha_pobreza_2010":28.42,"_source":"fallback"},{"Ano":2014,"cod_municipio":"2806701","municipio":"Nossa Senhora do Socorro","uf":"SE","regiao":"Nordeste","lat":-10.8554,"lon":-37.1264,"populacao":85814,"n_benef":15223,"valor_nominal":25.9029,"valor_2021":39.0475,"pbfPerBenef":2565.03,"pbfPerCapita":455.02,"idhm_2010":0.664,"linha_pobreza_2010":38.51,"_source":"fallback"},{"Ano":2014,"cod_municipio":"2900702","municipio":"Alagoinhas","uf":"BA","regiao":"Nordeste","lat":-12.1356,"lon":-38.4192,"populacao":153560,"n_benef":20383,"valor_nominal":36.0376,"valor_2021":54.325,"pbfPerBenef":2665.21,"pbfPerCapita":353.77,"idhm_2010":0.683,"linha_pobreza_2010":32.58,"_source":"fallback"},{"Ano":2014,"cod_municipio":"2910800","municipio":"Camaçari","uf":"BA","regiao":"Nordeste","lat":-12.6973,"lon":-38.3242,"populacao":612000,"n_benef":88790,"valor_nominal":156.982,"valor_2021":236.6431,"pbfPerBenef":2665.2,"pbfPerCapita":386.67,"idhm_2010":0.694,"linha_pobreza_2010":35.61,"_source":"fallback"},{"Ano":2014,"cod_municipio":"2918407","municipio":"Feira de Santana","uf":"BA","regiao":"Nordeste","lat":-12.2664,"lon":-38.9663,"populacao":216588,"n_benef":29278,"valor_nominal":51.7651,"valor_2021":78.0335,"pbfPerBenef":2665.26,"pbfPerCapita":360.29,"idhm_2010":0.712,"linha_pobreza_2010":33.18,"_source":"fallback"},{"Ano":2014,"cod_municipio":"2927408","municipio":"Salvador","uf":"BA","regiao":"Nordeste","lat":-12.9777,"lon":-38.5016,"populacao":2902927,"n_benef":364748,"valor_nominal":644.8773,"valor_2021":972.1225,"pbfPerBenef":2665.19,"pbfPerCapita":334.88,"idhm_2010":0.759,"linha_pobreza_2010":30.84,"_source":"fallback"},{"Ano":2014,"cod_municipio":"2933307","municipio":"Vitória da Conquista","uf":"BA","regiao":"Nordeste","lat":-14.8615,"lon":-40.8442,"populacao":340199,"n_benef":53251,"valor_nominal":94.1493,"valor_2021":141.9257,"pbfPerBenef":2665.22,"pbfPerCapita":417.18,"idhm_2010":0.678,"linha_pobreza_2010":38.42,"_source":"fallback"},{"Ano":2014,"cod_municipio":"3106200","municipio":"Belo Horizonte","uf":"MG","regiao":"Sudeste","lat":-19.9167,"lon":-43.9345,"populacao":2491109,"n_benef":143669,"valor_nominal":229.1819,"valor_2021":345.4811,"pbfPerBenef":2404.7,"pbfPerCapita":138.69,"idhm_2010":0.81,"linha_pobreza_2010":11.83,"_source":"fallback"},{"Ano":2014,"cod_municipio":"3118007","municipio":"Conselheiro Lafaiete","uf":"MG","regiao":"Sudeste","lat":-20.6602,"lon":-43.7864,"populacao":52280,"n_benef":4697,"valor_nominal":7.4931,"valor_2021":11.2956,"pbfPerBenef":2404.85,"pbfPerCapita":216.06,"idhm_2010":0.731,"linha_pobreza_2010":18.43,"_source":"fallback"},{"Ano":2014,"cod_municipio":"3118601","municipio":"Contagem","uf":"MG","regiao":"Sudeste","lat":-19.932,"lon":-44.0537,"populacao":643476,"n_benef":46271,"valor_nominal":73.812,"valor_2021":111.2682,"pbfPerBenef":2404.71,"pbfPerCapita":172.92,"idhm_2010":0.756,"linha_pobreza_2010":14.75,"_source":"fallback"},{"Ano":2014,"cod_municipio":"3127701","municipio":"Divinópolis","uf":"MG","regiao":"Sudeste","lat":-20.1393,"lon":-44.8829,"populacao":276995,"n_benef":18797,"valor_nominal":29.9857,"valor_2021":45.202,"pbfPerBenef":2404.75,"pbfPerCapita":163.19,"idhm_2010":0.764,"linha_pobreza_2010":13.92,"_source":"fallback"},{"Ano":2014,"cod_municipio":"3132404","municipio":"Lavras","uf":"MG","regiao":"Sudeste","lat":-21.245,"lon":-44.9933,"populacao":95491,"n_benef":5549,"valor_nominal":8.852,"valor_2021":13.344,"pbfPerBenef":2404.75,"pbfPerCapita":139.74,"idhm_2010":0.782,"linha_pobreza_2010":11.92,"_source":"fallback"},{"Ano":2014,"cod_municipio":"3136702","municipio":"Juiz de Fora","uf":"MG","regiao":"Sudeste","lat":-21.7642,"lon":-43.3503,"populacao":550710,"n_benef":41990,"valor_nominal":66.9827,"valor_2021":100.9733,"pbfPerBenef":2404.7,"pbfPerCapita":183.35,"idhm_2010":0.778,"linha_pobreza_2010":15.64,"_source":"fallback"},{"Ano":2014,"cod_municipio":"3170206","municipio":"Uberlândia","uf":"MG","regiao":"Sudeste","lat":-18.9128,"lon":-48.2755,"populacao":654681,"n_benef":39608,"valor_nominal":63.1836,"valor_2021":95.2463,"pbfPerBenef":2404.72,"pbfPerCapita":145.49,"idhm_2010":0.789,"linha_pobreza_2010":12.41,"_source":"fallback"},{"Ano":2014,"cod_municipio":"3205002","municipio":"Serra","uf":"ES","regiao":"Sudeste","lat":-20.1289,"lon":-40.3076,"populacao":476428,"n_benef":32697,"valor_nominal":48.3438,"valor_2021":72.876,"pbfPerBenef":2228.83,"pbfPerCapita":152.96,"idhm_2010":0.739,"linha_pobreza_2010":17.83,"_source":"fallback"},{"Ano":2014,"cod_municipio":"3205200","municipio":"Vila Velha","uf":"ES","regiao":"Sudeste","lat":-20.3293,"lon":-40.2925,"populacao":465690,"n_benef":25614,"valor_nominal":37.8723,"valor_2021":57.0907,"pbfPerBenef":2228.89,"pbfPerCapita":122.59,"idhm_2010":0.8,"linha_pobreza_2010":14.29,"_source":"fallback"},{"Ano":2014,"cod_municipio":"3205309","municipio":"Vitória","uf":"ES","regiao":"Sudeste","lat":-20.2976,"lon":-40.2958,"populacao":352104,"n_benef":16900,"valor_nominal":24.9879,"valor_2021":37.6681,"pbfPerBenef":2228.88,"pbfPerCapita":106.98,"idhm_2010":0.845,"linha_pobreza_2010":12.47,"_source":"fallback"},{"Ano":2014,"cod_municipio":"3303302","municipio":"Niterói","uf":"RJ","regiao":"Sudeste","lat":-22.8833,"lon":-43.1037,"populacao":495470,"n_benef":21881,"valor_nominal":36.0575,"valor_2021":54.355,"pbfPerBenef":2484.12,"pbfPerCapita":109.7,"idhm_2010":0.837,"linha_pobreza_2010":11.41,"_source":"fallback"},{"Ano":2014,"cod_municipio":"3303500","municipio":"Macaé","uf":"RJ","regiao":"Sudeste","lat":-22.3704,"lon":-41.7889,"populacao":806177,"n_benef":42873,"valor_nominal":70.6496,"valor_2021":106.501,"pbfPerBenef":2484.1,"pbfPerCapita":132.11,"idhm_2010":0.764,"linha_pobreza_2010":13.74,"_source":"fallback"},{"Ano":2014,"cod_municipio":"3303906","municipio":"Nova Iguaçu","uf":"RJ","regiao":"Sudeste","lat":-22.7595,"lon":-43.4517,"populacao":298017,"n_benef":20566,"valor_nominal":33.891,"valor_2021":51.0892,"pbfPerBenef":2484.16,"pbfPerCapita":171.43,"idhm_2010":0.713,"linha_pobreza_2010":17.83,"_source":"fallback"},{"Ano":2014,"cod_municipio":"3304144","municipio":"Petrópolis","uf":"RJ","regiao":"Sudeste","lat":-22.5052,"lon":-43.1786,"populacao":142709,"n_benef":9025,"valor_nominal":14.8729,"valor_2021":22.4202,"pbfPerBenef":2484.24,"pbfPerCapita":157.1,"idhm_2010":0.745,"linha_pobreza_2010":16.34,"_source":"fallback"},{"Ano":2014,"cod_municipio":"3304557","municipio":"Rio de Janeiro","uf":"RJ","regiao":"Sudeste","lat":-22.9068,"lon":-43.1729,"populacao":6453682,"n_benef":365197,"valor_nominal":601.7936,"valor_2021":907.1759,"pbfPerBenef":2484.07,"pbfPerCapita":140.57,"idhm_2010":0.799,"linha_pobreza_2010":14.62,"_source":"fallback"},{"Ano":2014,"cod_municipio":"3304904","municipio":"São Gonçalo","uf":"RJ","regiao":"Sudeste","lat":-22.8267,"lon":-43.0537,"populacao":1031903,"n_benef":67578,"valor_nominal":111.3607,"valor_2021":167.8711,"pbfPerBenef":2484.11,"pbfPerCapita":162.68,"idhm_2010":0.739,"linha_pobreza_2010":16.92,"_source":"fallback"},{"Ano":2014,"cod_municipio":"3501608","municipio":"Americana","uf":"SP","regiao":"Sudeste","lat":-22.7392,"lon":-47.3314,"populacao":226970,"n_benef":7549,"valor_nominal":10.7712,"valor_2021":16.2371,"pbfPerBenef":2150.89,"pbfPerCapita":71.54,"idhm_2010":0.811,"linha_pobreza_2010":9.62,"_source":"fallback"},{"Ano":2014,"cod_municipio":"3506003","municipio":"Bauru","uf":"SP","regiao":"Sudeste","lat":-22.3147,"lon":-49.0606,"populacao":364562,"n_benef":14294,"valor_nominal":20.3941,"valor_2021":30.7431,"pbfPerBenef":2150.77,"pbfPerCapita":84.33,"idhm_2010":0.801,"linha_pobreza_2010":11.34,"_source":"fallback"},{"Ano":2014,"cod_municipio":"3509502","municipio":"Campinas","uf":"SP","regiao":"Sudeste","lat":-22.9099,"lon":-47.0626,"populacao":1154617,"n_benef":45191,"valor_nominal":64.4769,"valor_2021":97.1959,"pbfPerBenef":2150.78,"pbfPerCapita":84.18,"idhm_2010":0.805,"linha_pobreza_2010":11.32,"_source":"fallback"},{"Ano":2014,"cod_municipio":"3530607","municipio":"Mauá","uf":"SP","regiao":"Sudeste","lat":-23.6678,"lon":-46.4613,"populacao":419839,"n_benef":22819,"valor_nominal":32.5578,"valor_2021":49.0794,"pbfPerBenef":2150.81,"pbfPerCapita":116.9,"idhm_2010":0.766,"linha_pobreza_2010":15.72,"_source":"fallback"},{"Ano":2014,"cod_municipio":"3534401","municipio":"Osasco","uf":"SP","regiao":"Sudeste","lat":-23.532,"lon":-46.7919,"populacao":693271,"n_benef":35692,"valor_nominal":50.9234,"valor_2021":76.7647,"pbfPerBenef":2150.75,"pbfPerCapita":110.73,"idhm_2010":0.776,"linha_pobreza_2010":14.89,"_source":"fallback"},{"Ano":2014,"cod_municipio":"3539806","municipio":"Praia Grande","uf":"SP","regiao":"Sudeste","lat":-24.0058,"lon":-46.4028,"populacao":112917,"n_benef":6785,"valor_nominal":9.6812,"valor_2021":14.5939,"pbfPerBenef":2150.91,"pbfPerCapita":129.24,"idhm_2010":0.754,"linha_pobreza_2010":17.38,"_source":"fallback"},{"Ano":2014,"cod_municipio":"3543402","municipio":"Ribeirão Preto","uf":"SP","regiao":"Sudeste","lat":-21.1775,"lon":-47.8103,"populacao":658059,"n_benef":27258,"valor_nominal":38.8903,"valor_2021":58.6253,"pbfPerBenef":2150.76,"pbfPerCapita":89.09,"idhm_2010":0.8,"linha_pobreza_2010":11.98,"_source":"fallback"},{"Ano":2014,"cod_municipio":"3543907","municipio":"Santos","uf":"SP","regiao":"Sudeste","lat":-23.9608,"lon":-46.3336,"populacao":198413,"n_benef":7841,"valor_nominal":11.1876,"valor_2021":16.8648,"pbfPerBenef":2150.84,"pbfPerCapita":85.0,"idhm_2010":0.84,"linha_pobreza_2010":11.43,"_source":"fallback"},{"Ano":2014,"cod_municipio":"3548500","municipio":"São José do Rio Preto","uf":"SP","regiao":"Sudeste","lat":-20.8197,"lon":-49.3795,"populacao":433565,"n_benef":16235,"valor_nominal":23.1634,"valor_2021":34.9178,"pbfPerBenef":2150.77,"pbfPerCapita":80.54,"idhm_2010":0.797,"linha_pobreza_2010":10.83,"_source":"fallback"},{"Ano":2014,"cod_municipio":"3548708","municipio":"São José dos Campos","uf":"SP","regiao":"Sudeste","lat":-23.2237,"lon":-45.9009,"populacao":811489,"n_benef":31677,"valor_nominal":45.1956,"valor_2021":68.1303,"pbfPerBenef":2150.78,"pbfPerCapita":83.96,"idhm_2010":0.807,"linha_pobreza_2010":11.29,"_source":"fallback"},{"Ano":2014,"cod_municipio":"3550308","municipio":"São Paulo","uf":"SP","regiao":"Sudeste","lat":-23.5505,"lon":-46.6333,"populacao":11895893,"n_benef":404322,"valor_nominal":576.8599,"valor_2021":869.5895,"pbfPerBenef":2150.73,"pbfPerCapita":73.1,"idhm_2010":0.805,"linha_pobreza_2010":9.83,"_source":"fallback"},{"Ano":2014,"cod_municipio":"3551009","municipio":"São Bernardo do Campo","uf":"SP","regiao":"Sudeste","lat":-23.6939,"lon":-46.565,"populacao":353040,"n_benef":16979,"valor_nominal":24.2254,"valor_2021":36.5187,"pbfPerBenef":2150.81,"pbfPerCapita":103.44,"idhm_2010":0.805,"linha_pobreza_2010":13.91,"_source":"fallback"},{"Ano":2014,"cod_municipio":"3552205","municipio":"Sorocaba","uf":"SP","regiao":"Sudeste","lat":-23.5015,"lon":-47.4526,"populacao":637187,"n_benef":26834,"valor_nominal":38.2855,"valor_2021":57.7136,"pbfPerBenef":2150.76,"pbfPerCapita":90.58,"idhm_2010":0.798,"linha_pobreza_2010":12.18,"_source":"fallback"},{"Ano":2014,"cod_municipio":"3552403","municipio":"São Vicente","uf":"SP","regiao":"Sudeste","lat":-23.9619,"lon":-46.3919,"populacao":262308,"n_benef":13794,"valor_nominal":19.6816,"valor_2021":29.6691,"pbfPerBenef":2150.87,"pbfPerCapita":113.11,"idhm_2010":0.768,"linha_pobreza_2010":15.21,"_source":"fallback"},{"Ano":2014,"cod_municipio":"4106902","municipio":"Curitiba","uf":"PR","regiao":"Sul","lat":-25.429,"lon":-49.2671,"populacao":1864416,"n_benef":70568,"valor_nominal":101.7013,"valor_2021":153.31,"pbfPerBenef":2172.51,"pbfPerCapita":82.23,"idhm_2010":0.823,"linha_pobreza_2010":9.83,"_source":"fallback"},{"Ano":2014,"cod_municipio":"4108304","municipio":"Foz do Iguaçu","uf":"PR","regiao":"Sul","lat":-25.5478,"lon":-54.5882,"populacao":263647,"n_benef":15146,"valor_nominal":21.8284,"valor_2021":32.9053,"pbfPerBenef":2172.54,"pbfPerCapita":124.81,"idhm_2010":0.751,"linha_pobreza_2010":14.92,"_source":"fallback"},{"Ano":2014,"cod_municipio":"4113700","municipio":"Londrina","uf":"PR","regiao":"Sul","lat":-23.3105,"lon":-51.1628,"populacao":543003,"n_benef":27557,"valor_nominal":39.7144,"valor_2021":59.8676,"pbfPerBenef":2172.5,"pbfPerCapita":110.25,"idhm_2010":0.778,"linha_pobreza_2010":13.18,"_source":"fallback"},{"Ano":2014,"cod_municipio":"4115200","municipio":"Maringá","uf":"PR","regiao":"Sul","lat":-23.4205,"lon":-51.9333,"populacao":391698,"n_benef":17208,"valor_nominal":24.8009,"valor_2021":37.3862,"pbfPerBenef":2172.61,"pbfPerCapita":95.45,"idhm_2010":0.808,"linha_pobreza_2010":11.41,"_source":"fallback"},{"Ano":2014,"cod_municipio":"4119905","municipio":"Ponta Grossa","uf":"PR","regiao":"Sul","lat":-25.0945,"lon":-50.1633,"populacao":334535,"n_benef":17698,"valor_nominal":25.507,"valor_2021":38.4505,"pbfPerBenef":2172.59,"pbfPerCapita":114.94,"idhm_2010":0.763,"linha_pobreza_2010":13.74,"_source":"fallback"},{"Ano":2014,"cod_municipio":"4128203","municipio":"Toledo","uf":"PR","regiao":"Sul","lat":-24.7142,"lon":-53.743,"populacao":55874,"n_benef":2564,"valor_nominal":3.6959,"valor_2021":5.5713,"pbfPerBenef":2172.91,"pbfPerCapita":99.71,"idhm_2010":0.768,"linha_pobreza_2010":11.92,"_source":"fallback"},{"Ano":2014,"cod_municipio":"4202008","municipio":"Balneário Camboriú","uf":"SC","regiao":"Sul","lat":-26.9909,"lon":-48.6356,"populacao":124557,"n_benef":2866,"valor_nominal":4.2942,"valor_2021":6.4734,"pbfPerBenef":2258.68,"pbfPerCapita":51.97,"idhm_2010":0.845,"linha_pobreza_2010":8.76,"_source":"fallback"},{"Ano":2014,"cod_municipio":"4202404","municipio":"Blumenau","uf":"SC","regiao":"Sul","lat":-26.9194,"lon":-49.0661,"populacao":334002,"n_benef":8133,"valor_nominal":12.1855,"valor_2021":18.3691,"pbfPerBenef":2258.58,"pbfPerCapita":55.0,"idhm_2010":0.806,"linha_pobreza_2010":9.27,"_source":"fallback"},{"Ano":2014,"cod_municipio":"4205407","municipio":"Florianópolis","uf":"SC","regiao":"Sul","lat":-27.5949,"lon":-48.5482,"populacao":461524,"n_benef":10196,"valor_nominal":15.2758,"valor_2021":23.0276,"pbfPerBenef":2258.49,"pbfPerCapita":49.89,"idhm_2010":0.847,"linha_pobreza_2010":8.41,"_source":"fallback"},{"Ano":2014,"cod_municipio":"4209102","municipio":"Joinville","uf":"SC","regiao":"Sul","lat":-26.3045,"lon":-48.8487,"populacao":554601,"n_benef":14321,"valor_nominal":21.456,"valor_2021":32.3439,"pbfPerBenef":2258.49,"pbfPerCapita":58.32,"idhm_2010":0.809,"linha_pobreza_2010":9.83,"_source":"fallback"},{"Ano":2014,"cod_municipio":"4216602","municipio":"São José","uf":"SC","regiao":"Sul","lat":-27.6113,"lon":-48.636,"populacao":228561,"n_benef":6502,"valor_nominal":9.7419,"valor_2021":14.6855,"pbfPerBenef":2258.61,"pbfPerCapita":64.25,"idhm_2010":0.809,"linha_pobreza_2010":10.83,"_source":"fallback"},{"Ano":2014,"cod_municipio":"4303103","municipio":"Bagé","uf":"RS","regiao":"Sul","lat":-31.3314,"lon":-54.1067,"populacao":125246,"n_benef":7027,"valor_nominal":10.8827,"valor_2021":16.4052,"pbfPerBenef":2334.6,"pbfPerCapita":130.98,"idhm_2010":0.74,"linha_pobreza_2010":14.63,"_source":"fallback"},{"Ano":2014,"cod_municipio":"4304606","municipio":"Caxias do Sul","uf":"RS","regiao":"Sul","lat":-29.1689,"lon":-51.1796,"populacao":339979,"n_benef":11905,"valor_nominal":18.4354,"valor_2021":27.7905,"pbfPerBenef":2334.36,"pbfPerCapita":81.74,"idhm_2010":0.782,"linha_pobreza_2010":9.13,"_source":"fallback"},{"Ano":2014,"cod_municipio":"4314100","municipio":"Pelotas","uf":"RS","regiao":"Sul","lat":-31.7654,"lon":-52.3376,"populacao":195620,"n_benef":11877,"valor_nominal":18.3918,"valor_2021":27.7248,"pbfPerBenef":2334.32,"pbfPerCapita":141.73,"idhm_2010":0.739,"linha_pobreza_2010":15.83,"_source":"fallback"},{"Ano":2014,"cod_municipio":"4314407","municipio":"Pelotas","uf":"RS","regiao":"Sul","lat":-31.7654,"lon":-52.3376,"populacao":342053,"n_benef":20768,"valor_nominal":32.1591,"valor_2021":48.4784,"pbfPerBenef":2334.28,"pbfPerCapita":141.73,"idhm_2010":0.739,"linha_pobreza_2010":15.83,"_source":"fallback"},{"Ano":2014,"cod_municipio":"4314902","municipio":"Porto Alegre","uf":"RS","regiao":"Sul","lat":-30.0331,"lon":-51.23,"populacao":1472482,"n_benef":61221,"valor_nominal":94.8001,"valor_2021":142.9068,"pbfPerBenef":2334.28,"pbfPerCapita":97.05,"idhm_2010":0.805,"linha_pobreza_2010":10.84,"_source":"fallback"},{"Ano":2014,"cod_municipio":"4318705","municipio":"Santa Maria","uf":"RS","regiao":"Sul","lat":-29.6868,"lon":-53.8149,"populacao":226988,"n_benef":10804,"valor_nominal":16.7303,"valor_2021":25.2202,"pbfPerBenef":2334.34,"pbfPerCapita":111.11,"idhm_2010":0.784,"linha_pobreza_2010":12.41,"_source":"fallback"},{"Ano":2014,"cod_municipio":"5002704","municipio":"Campo Grande","uf":"MS","regiao":"Centro-Oeste","lat":-20.4697,"lon":-54.6201,"populacao":843120,"n_benef":50680,"valor_nominal":82.486,"valor_2021":124.3438,"pbfPerBenef":2453.51,"pbfPerCapita":147.48,"idhm_2010":0.784,"linha_pobreza_2010":11.83,"_source":"fallback"},{"Ano":2014,"cod_municipio":"5003702","municipio":"Dourados","uf":"MS","regiao":"Centro-Oeste","lat":-22.2231,"lon":-54.812,"populacao":210218,"n_benef":17015,"valor_nominal":27.6944,"valor_2021":41.748,"pbfPerBenef":2453.6,"pbfPerCapita":198.59,"idhm_2010":0.747,"linha_pobreza_2010":15.93,"_source":"fallback"},{"Ano":2014,"cod_municipio":"5103403","municipio":"Cuiabá","uf":"MT","regiao":"Centro-Oeste","lat":-15.6014,"lon":-56.0979,"populacao":575480,"n_benef":34717,"valor_nominal":55.033,"valor_2021":82.9596,"pbfPerBenef":2389.6,"pbfPerCapita":144.16,"idhm_2010":0.785,"linha_pobreza_2010":11.42,"_source":"fallback"},{"Ano":2014,"cod_municipio":"5107602","municipio":"Várzea Grande","uf":"MT","regiao":"Centro-Oeste","lat":-15.6464,"lon":-56.1326,"populacao":211718,"n_benef":17705,"valor_nominal":28.065,"valor_2021":42.3067,"pbfPerBenef":2389.53,"pbfPerCapita":199.83,"idhm_2010":0.734,"linha_pobreza_2010":15.83,"_source":"fallback"},{"Ano":2014,"cod_municipio":"5108402","municipio":"Rondonópolis","uf":"MT","regiao":"Centro-Oeste","lat":-16.4673,"lon":-54.6372,"populacao":265775,"n_benef":17423,"valor_nominal":27.6193,"valor_2021":41.6348,"pbfPerBenef":2389.65,"pbfPerCapita":156.65,"idhm_2010":0.755,"linha_pobreza_2010":12.41,"_source":"fallback"},{"Ano":2014,"cod_municipio":"5108501","municipio":"Sinop","uf":"MT","regiao":"Centro-Oeste","lat":-11.8606,"lon":-55.5025,"populacao":10650,"n_benef":721,"valor_nominal":1.1442,"valor_2021":1.7248,"pbfPerBenef":2392.28,"pbfPerCapita":161.96,"idhm_2010":0.754,"linha_pobreza_2010":12.83,"_source":"fallback"},{"Ano":2014,"cod_municipio":"5201108","municipio":"Anápolis","uf":"GO","regiao":"Centro-Oeste","lat":-16.3267,"lon":-48.953,"populacao":361991,"n_benef":24664,"valor_nominal":37.2524,"valor_2021":56.1563,"pbfPerBenef":2276.85,"pbfPerCapita":155.13,"idhm_2010":0.737,"linha_pobreza_2010":12.41,"_source":"fallback"},{"Ano":2014,"cod_municipio":"5208707","municipio":"Goiânia","uf":"GO","regiao":"Centro-Oeste","lat":-16.6869,"lon":-49.2648,"populacao":1412364,"n_benef":76224,"valor_nominal":115.1291,"valor_2021":173.5518,"pbfPerBenef":2276.86,"pbfPerCapita":122.88,"idhm_2010":0.799,"linha_pobreza_2010":9.83,"_source":"fallback"},{"Ano":2014,"cod_municipio":"5215231","municipio":"Luziânia","uf":"GO","regiao":"Centro-Oeste","lat":-16.2517,"lon":-47.9501,"populacao":104899,"n_benef":10550,"valor_nominal":15.9361,"valor_2021":24.0229,"pbfPerBenef":2277.05,"pbfPerCapita":229.01,"idhm_2010":0.701,"linha_pobreza_2010":18.32,"_source":"fallback"},{"Ano":2014,"cod_municipio":"5219753","municipio":"Senador Canedo","uf":"GO","regiao":"Centro-Oeste","lat":-16.7053,"lon":-49.0928,"populacao":69000,"n_benef":6140,"valor_nominal":9.2751,"valor_2021":13.9817,"pbfPerBenef":2277.16,"pbfPerCapita":202.63,"idhm_2010":0.726,"linha_pobreza_2010":16.21,"_source":"fallback"},{"Ano":2014,"cod_municipio":"5300108","municipio":"Brasília","uf":"DF","regiao":"Centro-Oeste","lat":-15.7942,"lon":-47.8822,"populacao":2852372,"n_benef":101156,"valor_nominal":147.6211,"valor_2021":222.532,"pbfPerBenef":2199.89,"pbfPerCapita":78.02,"idhm_2010":0.824,"linha_pobreza_2010":7.41,"_source":"fallback"},{"Ano":2015,"cod_municipio":"1100015","municipio":"Alta Floresta D'Oeste","uf":"RO","regiao":"Norte","lat":-11.9282,"lon":-61.9985,"populacao":25578,"n_benef":3041,"valor_nominal":4.6445,"valor_2021":6.3262,"pbfPerBenef":2080.3,"pbfPerCapita":247.33,"idhm_2010":0.641,"linha_pobreza_2010":28.45,"_source":"fallback"},{"Ano":2015,"cod_municipio":"1100122","municipio":"Cacoal","uf":"RO","regiao":"Norte","lat":-11.4377,"lon":-61.4474,"populacao":130419,"n_benef":11898,"valor_nominal":18.1713,"valor_2021":24.7507,"pbfPerBenef":2080.24,"pbfPerCapita":189.78,"idhm_2010":0.718,"linha_pobreza_2010":21.83,"_source":"fallback"},{"Ano":2015,"cod_municipio":"1100205","municipio":"Porto Velho","uf":"RO","regiao":"Norte","lat":-8.7619,"lon":-63.9039,"populacao":502748,"n_benef":33469,"valor_nominal":51.1162,"valor_2021":69.624,"pbfPerBenef":2080.25,"pbfPerCapita":138.49,"idhm_2010":0.736,"linha_pobreza_2010":15.93,"_source":"fallback"},{"Ano":2015,"cod_municipio":"1200013","municipio":"Acrelândia","uf":"AC","regiao":"Norte","lat":-9.8253,"lon":-66.8961,"populacao":13869,"n_benef":2383,"valor_nominal":5.8692,"valor_2021":7.9943,"pbfPerBenef":3354.72,"pbfPerCapita":576.41,"idhm_2010":0.604,"linha_pobreza_2010":32.67,"_source":"fallback"},{"Ano":2015,"cod_municipio":"1200401","municipio":"Rio Branco","uf":"AC","regiao":"Norte","lat":-9.9747,"lon":-67.8243,"populacao":370550,"n_benef":41036,"valor_nominal":101.038,"valor_2021":137.6211,"pbfPerBenef":3353.67,"pbfPerCapita":371.4,"idhm_2010":0.727,"linha_pobreza_2010":21.05,"_source":"fallback"},{"Ano":2015,"cod_municipio":"1302603","municipio":"Manaus","uf":"AM","regiao":"Norte","lat":-3.119,"lon":-60.0217,"populacao":2057711,"n_benef":210553,"valor_nominal":447.6044,"valor_2021":609.6698,"pbfPerBenef":2895.56,"pbfPerCapita":296.29,"idhm_2010":0.737,"linha_pobreza_2010":18.42,"_source":"fallback"},{"Ano":2015,"cod_municipio":"1303809","municipio":"Parintins","uf":"AM","regiao":"Norte","lat":-2.6283,"lon":-56.7351,"populacao":43094,"n_benef":8021,"valor_nominal":17.0534,"valor_2021":23.228,"pbfPerBenef":2895.9,"pbfPerCapita":539.01,"idhm_2010":0.658,"linha_pobreza_2010":33.51,"_source":"fallback"},{"Ano":2015,"cod_municipio":"1400100","municipio":"Boa Vista","uf":"RR","regiao":"Norte","lat":2.8235,"lon":-60.6758,"populacao":320714,"n_benef":33226,"valor_nominal":63.7232,"valor_2021":86.7957,"pbfPerBenef":2612.28,"pbfPerCapita":270.63,"idhm_2010":0.752,"linha_pobreza_2010":17.62,"_source":"fallback"},{"Ano":2015,"cod_municipio":"1400308","municipio":"Caracaraí","uf":"RR","regiao":"Norte","lat":1.8231,"lon":-61.1264,"populacao":16380,"n_benef":2574,"valor_nominal":4.9373,"valor_2021":6.7249,"pbfPerBenef":2612.63,"pbfPerCapita":410.56,"idhm_2010":0.624,"linha_pobreza_2010":26.73,"_source":"fallback"},{"Ano":2015,"cod_municipio":"1400407","municipio":"Caroebe","uf":"RR","regiao":"Norte","lat":0.8856,"lon":-59.6967,"populacao":10148,"n_benef":2322,"valor_nominal":4.4538,"valor_2021":6.0664,"pbfPerBenef":2612.55,"pbfPerCapita":597.79,"idhm_2010":0.547,"linha_pobreza_2010":38.92,"_source":"fallback"},{"Ano":2015,"cod_municipio":"1500107","municipio":"Abaetetuba","uf":"PA","regiao":"Norte","lat":-1.7197,"lon":-48.8783,"populacao":150431,"n_benef":31005,"valor_nominal":61.2572,"valor_2021":83.4368,"pbfPerBenef":2691.08,"pbfPerCapita":554.65,"idhm_2010":0.628,"linha_pobreza_2010":42.31,"_source":"fallback"},{"Ano":2015,"cod_municipio":"1501402","municipio":"Belém","uf":"PA","regiao":"Norte","lat":-1.4558,"lon":-48.5044,"populacao":1439561,"n_benef":164167,"valor_nominal":324.3459,"valor_2021":441.7827,"pbfPerBenef":2691.06,"pbfPerCapita":306.89,"idhm_2010":0.746,"linha_pobreza_2010":23.41,"_source":"fallback"},{"Ano":2015,"cod_municipio":"1505536","municipio":"Parauapebas","uf":"PA","regiao":"Norte","lat":-6.0675,"lon":-49.902,"populacao":189921,"n_benef":20520,"valor_nominal":40.5426,"valor_2021":55.2219,"pbfPerBenef":2691.13,"pbfPerCapita":290.76,"idhm_2010":0.715,"linha_pobreza_2010":22.18,"_source":"fallback"},{"Ano":2015,"cod_municipio":"1600055","municipio":"Mazagão","uf":"AP","regiao":"Norte","lat":-0.1153,"lon":-51.289,"populacao":4938,"n_benef":805,"valor_nominal":1.6031,"valor_2021":2.1835,"pbfPerBenef":2712.4,"pbfPerCapita":442.18,"idhm_2010":0.598,"linha_pobreza_2010":40.18,"_source":"fallback"},{"Ano":2015,"cod_municipio":"1600303","municipio":"Macapá","uf":"AP","regiao":"Norte","lat":0.0389,"lon":-51.0664,"populacao":456171,"n_benef":39878,"valor_nominal":79.3524,"valor_2021":108.0837,"pbfPerBenef":2710.36,"pbfPerCapita":236.94,"idhm_2010":0.733,"linha_pobreza_2010":21.53,"_source":"fallback"},{"Ano":2015,"cod_municipio":"1700301","municipio":"Araguaína","uf":"TO","regiao":"Norte","lat":-7.1908,"lon":-48.2076,"populacao":6149,"n_benef":831,"valor_nominal":1.4549,"valor_2021":1.9817,"pbfPerBenef":2384.7,"pbfPerCapita":322.28,"idhm_2010":0.752,"linha_pobreza_2010":24.43,"_source":"fallback"},{"Ano":2015,"cod_municipio":"1709500","municipio":"Araguaína","uf":"TO","regiao":"Norte","lat":-7.1908,"lon":-48.2076,"populacao":83707,"n_benef":11319,"valor_nominal":19.8058,"valor_2021":26.9769,"pbfPerBenef":2383.33,"pbfPerCapita":322.28,"idhm_2010":0.752,"linha_pobreza_2010":24.43,"_source":"fallback"},{"Ano":2015,"cod_municipio":"1721000","municipio":"Palmas","uf":"TO","regiao":"Norte","lat":-10.1843,"lon":-48.3338,"populacao":272726,"n_benef":25980,"valor_nominal":45.4583,"valor_2021":61.9176,"pbfPerBenef":2383.28,"pbfPerCapita":227.03,"idhm_2010":0.788,"linha_pobreza_2010":17.21,"_source":"fallback"},{"Ano":2015,"cod_municipio":"2103000","municipio":"Caxias","uf":"MA","regiao":"Nordeste","lat":-4.8606,"lon":-43.3568,"populacao":161137,"n_benef":37151,"valor_nominal":77.3102,"valor_2021":105.3021,"pbfPerBenef":2834.43,"pbfPerCapita":653.49,"idhm_2010":0.624,"linha_pobreza_2010":46.58,"_source":"fallback"},{"Ano":2015,"cod_municipio":"2105302","municipio":"Imperatriz","uf":"MA","regiao":"Nordeste","lat":-5.526,"lon":-47.496,"populacao":253123,"n_benef":40605,"valor_nominal":84.4992,"valor_2021":115.094,"pbfPerBenef":2834.48,"pbfPerCapita":454.7,"idhm_2010":0.731,"linha_pobreza_2010":32.41,"_source":"fallback"},{"Ano":2015,"cod_municipio":"2111300","municipio":"São Luís","uf":"MA","regiao":"Nordeste","lat":-2.5306,"lon":-44.3068,"populacao":1073893,"n_benef":153031,"valor_nominal":318.4524,"valor_2021":433.7554,"pbfPerBenef":2834.43,"pbfPerCapita":403.91,"idhm_2010":0.768,"linha_pobreza_2010":28.79,"_source":"fallback"},{"Ano":2015,"cod_municipio":"2111409","municipio":"São José de Ribamar","uf":"MA","regiao":"Nordeste","lat":-2.5611,"lon":-44.0541,"populacao":18607,"n_benef":2988,"valor_nominal":6.2192,"valor_2021":8.471,"pbfPerBenef":2835.0,"pbfPerCapita":455.26,"idhm_2010":0.681,"linha_pobreza_2010":32.45,"_source":"fallback"},{"Ano":2015,"cod_municipio":"2207702","municipio":"Parnaíba","uf":"PI","regiao":"Nordeste","lat":-2.905,"lon":-41.7765,"populacao":149803,"n_benef":30658,"valor_nominal":62.1296,"valor_2021":84.6251,"pbfPerBenef":2760.29,"pbfPerCapita":564.91,"idhm_2010":0.687,"linha_pobreza_2010":38.76,"_source":"fallback"},{"Ano":2015,"cod_municipio":"2211001","municipio":"Teresina","uf":"PI","regiao":"Nordeste","lat":-5.0892,"lon":-42.8019,"populacao":844245,"n_benef":124057,"valor_nominal":251.4062,"valor_2021":342.4336,"pbfPerBenef":2760.29,"pbfPerCapita":405.61,"idhm_2010":0.751,"linha_pobreza_2010":27.83,"_source":"fallback"},{"Ano":2015,"cod_municipio":"2304251","municipio":"Sobral","uf":"CE","regiao":"Nordeste","lat":-3.6886,"lon":-40.3494,"populacao":23677,"n_benef":3274,"valor_nominal":5.6678,"valor_2021":7.7199,"pbfPerBenef":2357.95,"pbfPerCapita":326.05,"idhm_2010":0.714,"linha_pobreza_2010":30.18,"_source":"fallback"},{"Ano":2015,"cod_municipio":"2304400","municipio":"Fortaleza","uf":"CE","regiao":"Nordeste","lat":-3.7172,"lon":-38.5433,"populacao":2591188,"n_benef":348077,"valor_nominal":602.3967,"valor_2021":820.5082,"pbfPerBenef":2357.26,"pbfPerCapita":316.65,"idhm_2010":0.754,"linha_pobreza_2010":29.31,"_source":"fallback"},{"Ano":2015,"cod_municipio":"2306405","municipio":"Iguatu","uf":"CE","regiao":"Nordeste","lat":-6.359,"lon":-39.2986,"populacao":124950,"n_benef":22287,"valor_nominal":38.5724,"valor_2021":52.5385,"pbfPerBenef":2357.36,"pbfPerCapita":420.48,"idhm_2010":0.677,"linha_pobreza_2010":38.92,"_source":"fallback"},{"Ano":2015,"cod_municipio":"2307650","municipio":"Juazeiro do Norte","uf":"CE","regiao":"Nordeste","lat":-7.2128,"lon":-39.3151,"populacao":221504,"n_benef":33957,"valor_nominal":58.7686,"valor_2021":80.0471,"pbfPerBenef":2357.31,"pbfPerCapita":361.38,"idhm_2010":0.694,"linha_pobreza_2010":33.45,"_source":"fallback"},{"Ano":2015,"cod_municipio":"2408003","municipio":"Mossoró","uf":"RN","regiao":"Nordeste","lat":-5.1875,"lon":-37.3439,"populacao":288162,"n_benef":38307,"valor_nominal":66.3017,"valor_2021":90.3077,"pbfPerBenef":2357.47,"pbfPerCapita":313.39,"idhm_2010":0.72,"linha_pobreza_2010":32.08,"_source":"fallback"},{"Ano":2015,"cod_municipio":"2408102","municipio":"Natal","uf":"RN","regiao":"Nordeste","lat":-5.7945,"lon":-35.211,"populacao":869954,"n_benef":97803,"valor_nominal":169.2776,"valor_2021":230.5684,"pbfPerBenef":2357.48,"pbfPerCapita":265.04,"idhm_2010":0.763,"linha_pobreza_2010":27.13,"_source":"fallback"},{"Ano":2015,"cod_municipio":"2504009","municipio":"Campina Grande","uf":"PB","regiao":"Nordeste","lat":-7.2306,"lon":-35.8811,"populacao":405072,"n_benef":62569,"valor_nominal":119.9728,"valor_2021":163.4116,"pbfPerBenef":2611.7,"pbfPerCapita":403.41,"idhm_2010":0.72,"linha_pobreza_2010":33.21,"_source":"fallback"},{"Ano":2015,"cod_municipio":"2507507","municipio":"João Pessoa","uf":"PB","regiao":"Nordeste","lat":-7.1195,"lon":-34.845,"populacao":791438,"n_benef":109954,"valor_nominal":210.8306,"valor_2021":287.1666,"pbfPerBenef":2611.7,"pbfPerCapita":362.84,"idhm_2010":0.763,"linha_pobreza_2010":29.87,"_source":"fallback"},{"Ano":2015,"cod_municipio":"2607901","municipio":"Caruaru","uf":"PE","regiao":"Nordeste","lat":-8.2829,"lon":-35.9763,"populacao":686122,"n_benef":108037,"valor_nominal":187.5821,"valor_2021":255.5005,"pbfPerBenef":2364.94,"pbfPerCapita":372.38,"idhm_2010":0.677,"linha_pobreza_2010":38.74,"_source":"fallback"},{"Ano":2015,"cod_municipio":"2609402","municipio":"Olinda","uf":"PE","regiao":"Nordeste","lat":-8.0089,"lon":-34.8553,"populacao":61016,"n_benef":7097,"valor_nominal":12.3238,"valor_2021":16.7859,"pbfPerBenef":2365.21,"pbfPerCapita":275.11,"idhm_2010":0.735,"linha_pobreza_2010":28.62,"_source":"fallback"},{"Ano":2015,"cod_municipio":"2611101","municipio":"Paulista","uf":"PE","regiao":"Nordeste","lat":-7.9408,"lon":-34.8728,"populacao":331951,"n_benef":36982,"valor_nominal":64.2116,"valor_2021":87.4609,"pbfPerBenef":2364.96,"pbfPerCapita":263.48,"idhm_2010":0.732,"linha_pobreza_2010":27.41,"_source":"fallback"},{"Ano":2015,"cod_municipio":"2611606","municipio":"Recife","uf":"PE","regiao":"Nordeste","lat":-8.0476,"lon":-34.877,"populacao":1617183,"n_benef":213034,"valor_nominal":369.8867,"valor_2021":503.8125,"pbfPerBenef":2364.94,"pbfPerCapita":311.54,"idhm_2010":0.772,"linha_pobreza_2010":32.41,"_source":"fallback"},{"Ano":2015,"cod_municipio":"2613602","municipio":"Petrolina","uf":"PE","regiao":"Nordeste","lat":-9.3891,"lon":-40.503,"populacao":33365,"n_benef":4906,"valor_nominal":8.519,"valor_2021":11.6035,"pbfPerBenef":2365.17,"pbfPerCapita":347.78,"idhm_2010":0.697,"linha_pobreza_2010":36.18,"_source":"fallback"},{"Ano":2015,"cod_municipio":"2702306","municipio":"Arapiraca","uf":"AL","regiao":"Nordeste","lat":-9.7521,"lon":-36.6612,"populacao":56631,"n_benef":9975,"valor_nominal":18.1146,"valor_2021":24.6734,"pbfPerBenef":2473.52,"pbfPerCapita":435.69,"idhm_2010":0.649,"linha_pobreza_2010":42.37,"_source":"fallback"},{"Ano":2015,"cod_municipio":"2704302","municipio":"Maceió","uf":"AL","regiao":"Nordeste","lat":-9.6498,"lon":-35.7089,"populacao":1013773,"n_benef":143047,"valor_nominal":259.7576,"valor_2021":353.8088,"pbfPerBenef":2473.37,"pbfPerCapita":349.0,"idhm_2010":0.721,"linha_pobreza_2010":33.94,"_source":"fallback"},{"Ano":2015,"cod_municipio":"2704708","municipio":"Palmeira dos Índios","uf":"AL","regiao":"Nordeste","lat":-9.4061,"lon":-36.628,"populacao":51132,"n_benef":8231,"valor_nominal":14.9467,"valor_2021":20.3584,"pbfPerBenef":2473.38,"pbfPerCapita":398.15,"idhm_2010":0.633,"linha_pobreza_2010":38.72,"_source":"fallback"},{"Ano":2015,"cod_municipio":"2800100","municipio":"Itabaiana","uf":"SE","regiao":"Nordeste","lat":-10.6843,"lon":-37.425,"populacao":2374,"n_benef":359,"valor_nominal":0.6047,"valor_2021":0.8236,"pbfPerBenef":2294.13,"pbfPerCapita":346.92,"idhm_2010":0.659,"linha_pobreza_2010":32.83,"_source":"fallback"},{"Ano":2015,"cod_municipio":"2800308","municipio":"Aracaju","uf":"SE","regiao":"Nordeste","lat":-10.9472,"lon":-37.0731,"populacao":632744,"n_benef":83034,"valor_nominal":139.5123,"valor_2021":190.0259,"pbfPerBenef":2288.53,"pbfPerCapita":300.32,"idhm_2010":0.77,"linha_pobreza_2010":28.42,"_source":"fallback"},{"Ano":2015,"cod_municipio":"2806701","municipio":"Nossa Senhora do Socorro","uf":"SE","regiao":"Nordeste","lat":-10.8554,"lon":-37.1264,"populacao":86979,"n_benef":15466,"valor_nominal":25.9865,"valor_2021":35.3956,"pbfPerBenef":2288.6,"pbfPerCapita":406.94,"idhm_2010":0.664,"linha_pobreza_2010":38.51,"_source":"fallback"},{"Ano":2015,"cod_municipio":"2900702","municipio":"Alagoinhas","uf":"BA","regiao":"Nordeste","lat":-12.1356,"lon":-38.4192,"populacao":154495,"n_benef":20744,"valor_nominal":36.8708,"valor_2021":50.2207,"pbfPerBenef":2420.98,"pbfPerCapita":325.06,"idhm_2010":0.683,"linha_pobreza_2010":32.58,"_source":"fallback"},{"Ano":2015,"cod_municipio":"2910800","municipio":"Camaçari","uf":"BA","regiao":"Nordeste","lat":-12.6973,"lon":-38.3242,"populacao":617528,"n_benef":90629,"valor_nominal":161.0816,"valor_2021":219.4049,"pbfPerBenef":2420.91,"pbfPerCapita":355.3,"idhm_2010":0.694,"linha_pobreza_2010":35.61,"_source":"fallback"},{"Ano":2015,"cod_municipio":"2918407","municipio":"Feira de Santana","uf":"BA","regiao":"Nordeste","lat":-12.2664,"lon":-38.9663,"populacao":218324,"n_benef":29855,"valor_nominal":53.0634,"valor_2021":72.2762,"pbfPerBenef":2420.91,"pbfPerCapita":331.05,"idhm_2010":0.712,"linha_pobreza_2010":33.18,"_source":"fallback"},{"Ano":2015,"cod_municipio":"2927408","municipio":"Salvador","uf":"BA","regiao":"Nordeste","lat":-12.9777,"lon":-38.5016,"populacao":2921087,"n_benef":371279,"valor_nominal":659.897,"valor_2021":898.8278,"pbfPerBenef":2420.9,"pbfPerCapita":307.7,"idhm_2010":0.759,"linha_pobreza_2010":30.84,"_source":"fallback"},{"Ano":2015,"cod_municipio":"2933307","municipio":"Vitória da Conquista","uf":"BA","regiao":"Nordeste","lat":-14.8615,"lon":-40.8442,"populacao":343230,"n_benef":54348,"valor_nominal":96.5962,"valor_2021":131.571,"pbfPerBenef":2420.9,"pbfPerCapita":383.33,"idhm_2010":0.678,"linha_pobreza_2010":38.42,"_source":"fallback"},{"Ano":2015,"cod_municipio":"3106200","municipio":"Belo Horizonte","uf":"MG","regiao":"Sudeste","lat":-19.9167,"lon":-43.9345,"populacao":2502557,"n_benef":146823,"valor_nominal":227.7279,"valor_2021":310.182,"pbfPerBenef":2112.63,"pbfPerCapita":123.95,"idhm_2010":0.81,"linha_pobreza_2010":11.83,"_source":"fallback"},{"Ano":2015,"cod_municipio":"3118007","municipio":"Conselheiro Lafaiete","uf":"MG","regiao":"Sudeste","lat":-20.6602,"lon":-43.7864,"populacao":52827,"n_benef":4828,"valor_nominal":7.4891,"valor_2021":10.2007,"pbfPerBenef":2112.82,"pbfPerCapita":193.1,"idhm_2010":0.731,"linha_pobreza_2010":18.43,"_source":"fallback"},{"Ano":2015,"cod_municipio":"3118601","municipio":"Contagem","uf":"MG","regiao":"Sudeste","lat":-19.932,"lon":-44.0537,"populacao":648766,"n_benef":47457,"valor_nominal":73.6084,"valor_2021":100.2601,"pbfPerBenef":2112.65,"pbfPerCapita":154.54,"idhm_2010":0.756,"linha_pobreza_2010":14.75,"_source":"fallback"},{"Ano":2015,"cod_municipio":"3127701","municipio":"Divinópolis","uf":"MG","regiao":"Sudeste","lat":-20.1393,"lon":-44.8829,"populacao":278363,"n_benef":19216,"valor_nominal":29.8056,"valor_2021":40.5974,"pbfPerBenef":2112.69,"pbfPerCapita":145.84,"idhm_2010":0.764,"linha_pobreza_2010":13.92,"_source":"fallback"},{"Ano":2015,"cod_municipio":"3132404","municipio":"Lavras","uf":"MG","regiao":"Sudeste","lat":-21.245,"lon":-44.9933,"populacao":96020,"n_benef":5676,"valor_nominal":8.8041,"valor_2021":11.9918,"pbfPerBenef":2112.73,"pbfPerCapita":124.89,"idhm_2010":0.782,"linha_pobreza_2010":11.92,"_source":"fallback"},{"Ano":2015,"cod_municipio":"3136702","municipio":"Juiz de Fora","uf":"MG","regiao":"Sudeste","lat":-21.7642,"lon":-43.3503,"populacao":555284,"n_benef":43070,"valor_nominal":66.8035,"valor_2021":90.9913,"pbfPerBenef":2112.64,"pbfPerCapita":163.86,"idhm_2010":0.778,"linha_pobreza_2010":15.64,"_source":"fallback"},{"Ano":2015,"cod_municipio":"3170206","municipio":"Uberlândia","uf":"MG","regiao":"Sudeste","lat":-18.9128,"lon":-48.2755,"populacao":662362,"n_benef":40765,"valor_nominal":63.2288,"valor_2021":86.1222,"pbfPerBenef":2112.65,"pbfPerCapita":130.02,"idhm_2010":0.789,"linha_pobreza_2010":12.41,"_source":"fallback"},{"Ano":2015,"cod_municipio":"3205002","municipio":"Serra","uf":"ES","regiao":"Sudeste","lat":-20.1289,"lon":-40.3076,"populacao":485376,"n_benef":34079,"valor_nominal":48.7363,"valor_2021":66.3823,"pbfPerBenef":1947.9,"pbfPerCapita":136.76,"idhm_2010":0.739,"linha_pobreza_2010":17.83,"_source":"fallback"},{"Ano":2015,"cod_municipio":"3205200","municipio":"Vila Velha","uf":"ES","regiao":"Sudeste","lat":-20.3293,"lon":-40.2925,"populacao":472762,"n_benef":26603,"valor_nominal":38.045,"valor_2021":51.82,"pbfPerBenef":1947.9,"pbfPerCapita":109.61,"idhm_2010":0.8,"linha_pobreza_2010":14.29,"_source":"fallback"},{"Ano":2015,"cod_municipio":"3205309","municipio":"Vitória","uf":"ES","regiao":"Sudeste","lat":-20.2976,"lon":-40.2958,"populacao":355875,"n_benef":17475,"valor_nominal":24.9912,"valor_2021":34.0398,"pbfPerBenef":1947.91,"pbfPerCapita":95.65,"idhm_2010":0.845,"linha_pobreza_2010":12.47,"_source":"fallback"},{"Ano":2015,"cod_municipio":"3303302","municipio":"Niterói","uf":"RJ","regiao":"Sudeste","lat":-22.8833,"lon":-43.1037,"populacao":496696,"n_benef":23094,"valor_nominal":36.6066,"valor_2021":49.8608,"pbfPerBenef":2159.04,"pbfPerCapita":100.39,"idhm_2010":0.837,"linha_pobreza_2010":11.41,"_source":"fallback"},{"Ano":2015,"cod_municipio":"3303500","municipio":"Macaé","uf":"RJ","regiao":"Sudeste","lat":-22.3704,"lon":-41.7889,"populacao":807492,"n_benef":45212,"valor_nominal":71.6651,"valor_2021":97.6131,"pbfPerBenef":2159.01,"pbfPerCapita":120.88,"idhm_2010":0.764,"linha_pobreza_2010":13.74,"_source":"fallback"},{"Ano":2015,"cod_municipio":"3303906","municipio":"Nova Iguaçu","uf":"RJ","regiao":"Sudeste","lat":-22.7595,"lon":-43.4517,"populacao":298142,"n_benef":21662,"valor_nominal":34.3366,"valor_2021":46.769,"pbfPerBenef":2159.03,"pbfPerCapita":156.87,"idhm_2010":0.713,"linha_pobreza_2010":17.83,"_source":"fallback"},{"Ano":2015,"cod_municipio":"3304144","municipio":"Petrópolis","uf":"RJ","regiao":"Sudeste","lat":-22.5052,"lon":-43.1786,"populacao":143632,"n_benef":9563,"valor_nominal":15.1595,"valor_2021":20.6484,"pbfPerBenef":2159.2,"pbfPerCapita":143.76,"idhm_2010":0.745,"linha_pobreza_2010":16.34,"_source":"fallback"},{"Ano":2015,"cod_municipio":"3304557","municipio":"Rio de Janeiro","uf":"RJ","regiao":"Sudeste","lat":-22.9068,"lon":-43.1729,"populacao":6476631,"n_benef":385860,"valor_nominal":611.6169,"valor_2021":833.0668,"pbfPerBenef":2158.99,"pbfPerCapita":128.63,"idhm_2010":0.799,"linha_pobreza_2010":14.62,"_source":"fallback"},{"Ano":2015,"cod_municipio":"3304904","municipio":"São Gonçalo","uf":"RJ","regiao":"Sudeste","lat":-22.8267,"lon":-43.0537,"populacao":1038081,"n_benef":71575,"valor_nominal":113.4526,"valor_2021":154.5307,"pbfPerBenef":2159.0,"pbfPerCapita":148.86,"idhm_2010":0.739,"linha_pobreza_2010":16.92,"_source":"fallback"},{"Ano":2015,"cod_municipio":"3501608","municipio":"Americana","uf":"SP","regiao":"Sudeste","lat":-22.7392,"lon":-47.3314,"populacao":229322,"n_benef":8084,"valor_nominal":11.5588,"valor_2021":15.744,"pbfPerBenef":1947.55,"pbfPerCapita":68.65,"idhm_2010":0.811,"linha_pobreza_2010":9.62,"_source":"fallback"},{"Ano":2015,"cod_municipio":"3506003","municipio":"Bauru","uf":"SP","regiao":"Sudeste","lat":-22.3147,"lon":-49.0606,"populacao":366992,"n_benef":15251,"valor_nominal":21.8053,"valor_2021":29.7004,"pbfPerBenef":1947.44,"pbfPerCapita":80.93,"idhm_2010":0.801,"linha_pobreza_2010":11.34,"_source":"fallback"},{"Ano":2015,"cod_municipio":"3509502","municipio":"Campinas","uf":"SP","regiao":"Sudeste","lat":-22.9099,"lon":-47.0626,"populacao":1164098,"n_benef":48292,"valor_nominal":69.0445,"valor_2021":94.0436,"pbfPerBenef":1947.39,"pbfPerCapita":80.79,"idhm_2010":0.805,"linha_pobreza_2010":11.32,"_source":"fallback"},{"Ano":2015,"cod_municipio":"3530607","municipio":"Mauá","uf":"SP","regiao":"Sudeste","lat":-23.6678,"lon":-46.4613,"populacao":424633,"n_benef":24463,"valor_nominal":34.9751,"valor_2021":47.6387,"pbfPerBenef":1947.38,"pbfPerCapita":112.19,"idhm_2010":0.766,"linha_pobreza_2010":15.72,"_source":"fallback"},{"Ano":2015,"cod_municipio":"3534401","municipio":"Osasco","uf":"SP","regiao":"Sudeste","lat":-23.532,"lon":-46.7919,"populacao":694844,"n_benef":37916,"valor_nominal":54.2094,"valor_2021":73.8372,"pbfPerBenef":1947.39,"pbfPerCapita":106.26,"idhm_2010":0.776,"linha_pobreza_2010":14.89,"_source":"fallback"},{"Ano":2015,"cod_municipio":"3539806","municipio":"Praia Grande","uf":"SP","regiao":"Sudeste","lat":-24.0058,"lon":-46.4028,"populacao":113793,"n_benef":7247,"valor_nominal":10.3623,"valor_2021":14.1143,"pbfPerBenef":1947.6,"pbfPerCapita":124.03,"idhm_2010":0.754,"linha_pobreza_2010":17.38,"_source":"fallback"},{"Ano":2015,"cod_municipio":"3543402","municipio":"Ribeirão Preto","uf":"SP","regiao":"Sudeste","lat":-21.1775,"lon":-47.8103,"populacao":666323,"n_benef":29254,"valor_nominal":41.8249,"valor_2021":56.9685,"pbfPerBenef":1947.37,"pbfPerCapita":85.5,"idhm_2010":0.8,"linha_pobreza_2010":11.98,"_source":"fallback"},{"Ano":2015,"cod_municipio":"3543907","municipio":"Santos","uf":"SP","regiao":"Sudeste","lat":-23.9608,"lon":-46.3336,"populacao":199961,"n_benef":8375,"valor_nominal":11.9752,"valor_2021":16.3112,"pbfPerBenef":1947.6,"pbfPerCapita":81.57,"idhm_2010":0.84,"linha_pobreza_2010":11.43,"_source":"fallback"},{"Ano":2015,"cod_municipio":"3548500","municipio":"São José do Rio Preto","uf":"SP","regiao":"Sudeste","lat":-20.8197,"lon":-49.3795,"populacao":433966,"n_benef":17223,"valor_nominal":24.625,"valor_2021":33.5411,"pbfPerBenef":1947.46,"pbfPerCapita":77.29,"idhm_2010":0.797,"linha_pobreza_2010":10.83,"_source":"fallback"},{"Ano":2015,"cod_municipio":"3548708","municipio":"São José dos Campos","uf":"SP","regiao":"Sudeste","lat":-23.2237,"lon":-45.9009,"populacao":816925,"n_benef":33800,"valor_nominal":48.3247,"valor_2021":65.8217,"pbfPerBenef":1947.39,"pbfPerCapita":80.57,"idhm_2010":0.807,"linha_pobreza_2010":11.29,"_source":"fallback"},{"Ano":2015,"cod_municipio":"3550308","municipio":"São Paulo","uf":"SP","regiao":"Sudeste","lat":-23.5505,"lon":-46.6333,"populacao":11967825,"n_benef":431134,"valor_nominal":616.3986,"valor_2021":839.5797,"pbfPerBenef":1947.38,"pbfPerCapita":70.15,"idhm_2010":0.805,"linha_pobreza_2010":9.83,"_source":"fallback"},{"Ano":2015,"cod_municipio":"3551009","municipio":"São Bernardo do Campo","uf":"SP","regiao":"Sudeste","lat":-23.6939,"lon":-46.565,"populacao":355542,"n_benef":18124,"valor_nominal":25.9126,"valor_2021":35.2948,"pbfPerBenef":1947.41,"pbfPerCapita":99.27,"idhm_2010":0.805,"linha_pobreza_2010":13.91,"_source":"fallback"},{"Ano":2015,"cod_municipio":"3552205","municipio":"Sorocaba","uf":"SP","regiao":"Sudeste","lat":-23.5015,"lon":-47.4526,"populacao":644919,"n_benef":28787,"valor_nominal":41.1572,"valor_2021":56.059,"pbfPerBenef":1947.37,"pbfPerCapita":86.92,"idhm_2010":0.798,"linha_pobreza_2010":12.18,"_source":"fallback"},{"Ano":2015,"cod_municipio":"3552403","municipio":"São Vicente","uf":"SP","regiao":"Sudeste","lat":-23.9619,"lon":-46.3919,"populacao":265955,"n_benef":14824,"valor_nominal":21.1948,"valor_2021":28.8689,"pbfPerBenef":1947.44,"pbfPerCapita":108.55,"idhm_2010":0.768,"linha_pobreza_2010":15.21,"_source":"fallback"},{"Ano":2015,"cod_municipio":"4106902","municipio":"Curitiba","uf":"PR","regiao":"Sul","lat":-25.429,"lon":-49.2671,"populacao":1879355,"n_benef":73584,"valor_nominal":99.8664,"valor_2021":136.0253,"pbfPerBenef":1848.57,"pbfPerCapita":72.38,"idhm_2010":0.823,"linha_pobreza_2010":9.83,"_source":"fallback"},{"Ano":2015,"cod_municipio":"4108304","municipio":"Foz do Iguaçu","uf":"PR","regiao":"Sul","lat":-25.5478,"lon":-54.5882,"populacao":263782,"n_benef":15676,"valor_nominal":21.2751,"valor_2021":28.9782,"pbfPerBenef":1848.57,"pbfPerCapita":109.86,"idhm_2010":0.751,"linha_pobreza_2010":14.92,"_source":"fallback"},{"Ano":2015,"cod_municipio":"4113700","municipio":"Londrina","uf":"PR","regiao":"Sul","lat":-23.3105,"lon":-51.1628,"populacao":548249,"n_benef":28781,"valor_nominal":39.0616,"valor_2021":53.2048,"pbfPerBenef":1848.61,"pbfPerCapita":97.04,"idhm_2010":0.778,"linha_pobreza_2010":13.18,"_source":"fallback"},{"Ano":2015,"cod_municipio":"4115200","municipio":"Maringá","uf":"PR","regiao":"Sul","lat":-23.4205,"lon":-51.9333,"populacao":397437,"n_benef":18062,"valor_nominal":24.5138,"valor_2021":33.3896,"pbfPerBenef":1848.61,"pbfPerCapita":84.01,"idhm_2010":0.808,"linha_pobreza_2010":11.41,"_source":"fallback"},{"Ano":2015,"cod_municipio":"4119905","municipio":"Ponta Grossa","uf":"PR","regiao":"Sul","lat":-25.0945,"lon":-50.1633,"populacao":337865,"n_benef":18490,"valor_nominal":25.095,"valor_2021":34.1812,"pbfPerBenef":1848.63,"pbfPerCapita":101.17,"idhm_2010":0.763,"linha_pobreza_2010":13.74,"_source":"fallback"},{"Ano":2015,"cod_municipio":"4128203","municipio":"Toledo","uf":"PR","regiao":"Sul","lat":-24.7142,"lon":-53.743,"populacao":56265,"n_benef":2671,"valor_nominal":3.6255,"valor_2021":4.9382,"pbfPerBenef":1848.83,"pbfPerCapita":87.77,"idhm_2010":0.768,"linha_pobreza_2010":11.92,"_source":"fallback"},{"Ano":2015,"cod_municipio":"4202008","municipio":"Balneário Camboriú","uf":"SC","regiao":"Sul","lat":-26.9909,"lon":-48.6356,"populacao":128155,"n_benef":3013,"valor_nominal":4.2782,"valor_2021":5.8273,"pbfPerBenef":1934.04,"pbfPerCapita":45.47,"idhm_2010":0.845,"linha_pobreza_2010":8.76,"_source":"fallback"},{"Ano":2015,"cod_municipio":"4202404","municipio":"Blumenau","uf":"SC","regiao":"Sul","lat":-26.9194,"lon":-49.0661,"populacao":338876,"n_benef":8432,"valor_nominal":11.9714,"valor_2021":16.3059,"pbfPerBenef":1933.81,"pbfPerCapita":48.12,"idhm_2010":0.806,"linha_pobreza_2010":9.27,"_source":"fallback"},{"Ano":2015,"cod_municipio":"4205407","municipio":"Florianópolis","uf":"SC","regiao":"Sul","lat":-27.5949,"lon":-48.5482,"populacao":469690,"n_benef":10603,"valor_nominal":15.0533,"valor_2021":20.5037,"pbfPerBenef":1933.76,"pbfPerCapita":43.65,"idhm_2010":0.847,"linha_pobreza_2010":8.41,"_source":"fallback"},{"Ano":2015,"cod_municipio":"4209102","municipio":"Joinville","uf":"SC","regiao":"Sul","lat":-26.3045,"lon":-48.8487,"populacao":562151,"n_benef":14833,"valor_nominal":21.0587,"valor_2021":28.6834,"pbfPerBenef":1933.76,"pbfPerCapita":51.02,"idhm_2010":0.809,"linha_pobreza_2010":9.83,"_source":"fallback"},{"Ano":2015,"cod_municipio":"4216602","municipio":"São José","uf":"SC","regiao":"Sul","lat":-27.6113,"lon":-48.636,"populacao":232309,"n_benef":6753,"valor_nominal":9.5878,"valor_2021":13.0593,"pbfPerBenef":1933.85,"pbfPerCapita":56.22,"idhm_2010":0.809,"linha_pobreza_2010":10.83,"_source":"fallback"},{"Ano":2015,"cod_municipio":"4303103","municipio":"Bagé","uf":"RS","regiao":"Sul","lat":-31.3314,"lon":-54.1067,"populacao":125975,"n_benef":7085,"valor_nominal":10.6434,"valor_2021":14.497,"pbfPerBenef":2046.16,"pbfPerCapita":115.08,"idhm_2010":0.74,"linha_pobreza_2010":14.63,"_source":"fallback"},{"Ano":2015,"cod_municipio":"4304606","municipio":"Caxias do Sul","uf":"RS","regiao":"Sul","lat":-29.1689,"lon":-51.1796,"populacao":341343,"n_benef":11981,"valor_nominal":17.9975,"valor_2021":24.5139,"pbfPerBenef":2046.06,"pbfPerCapita":71.82,"idhm_2010":0.782,"linha_pobreza_2010":9.13,"_source":"fallback"},{"Ano":2015,"cod_municipio":"4314100","municipio":"Pelotas","uf":"RS","regiao":"Sul","lat":-31.7654,"lon":-52.3376,"populacao":196739,"n_benef":11973,"valor_nominal":17.9855,"valor_2021":24.4975,"pbfPerBenef":2046.06,"pbfPerCapita":124.52,"idhm_2010":0.739,"linha_pobreza_2010":15.83,"_source":"fallback"},{"Ano":2015,"cod_municipio":"4314407","municipio":"Pelotas","uf":"RS","regiao":"Sul","lat":-31.7654,"lon":-52.3376,"populacao":342873,"n_benef":20867,"valor_nominal":31.3447,"valor_2021":42.6938,"pbfPerBenef":2046.0,"pbfPerCapita":124.52,"idhm_2010":0.739,"linha_pobreza_2010":15.83,"_source":"fallback"},{"Ano":2015,"cod_municipio":"4314902","municipio":"Porto Alegre","uf":"RS","regiao":"Sul","lat":-30.0331,"lon":-51.23,"populacao":1476867,"n_benef":61550,"valor_nominal":92.453,"valor_2021":125.9277,"pbfPerBenef":2045.94,"pbfPerCapita":85.27,"idhm_2010":0.805,"linha_pobreza_2010":10.84,"_source":"fallback"},{"Ano":2015,"cod_municipio":"4318705","municipio":"Santa Maria","uf":"RS","regiao":"Sul","lat":-29.6868,"lon":-53.8149,"populacao":228370,"n_benef":10896,"valor_nominal":16.3667,"valor_2021":22.2926,"pbfPerBenef":2045.95,"pbfPerCapita":97.62,"idhm_2010":0.784,"linha_pobreza_2010":12.41,"_source":"fallback"},{"Ano":2015,"cod_municipio":"5002704","municipio":"Campo Grande","uf":"MS","regiao":"Centro-Oeste","lat":-20.4697,"lon":-54.6201,"populacao":853622,"n_benef":52272,"valor_nominal":81.5305,"valor_2021":111.0505,"pbfPerBenef":2124.47,"pbfPerCapita":130.09,"idhm_2010":0.784,"linha_pobreza_2010":11.83,"_source":"fallback"},{"Ano":2015,"cod_municipio":"5003702","municipio":"Dourados","uf":"MS","regiao":"Centro-Oeste","lat":-22.2231,"lon":-54.812,"populacao":212870,"n_benef":17553,"valor_nominal":27.3779,"valor_2021":37.2907,"pbfPerBenef":2124.46,"pbfPerCapita":175.18,"idhm_2010":0.747,"linha_pobreza_2010":15.93,"_source":"fallback"},{"Ano":2015,"cod_municipio":"5103403","municipio":"Cuiabá","uf":"MT","regiao":"Centro-Oeste","lat":-15.6014,"lon":-56.0979,"populacao":580489,"n_benef":35285,"valor_nominal":54.1519,"valor_2021":73.7589,"pbfPerBenef":2090.37,"pbfPerCapita":127.06,"idhm_2010":0.785,"linha_pobreza_2010":11.42,"_source":"fallback"},{"Ano":2015,"cod_municipio":"5107602","municipio":"Várzea Grande","uf":"MT","regiao":"Centro-Oeste","lat":-15.6464,"lon":-56.1326,"populacao":215320,"n_benef":18142,"valor_nominal":27.8432,"valor_2021":37.9245,"pbfPerBenef":2090.42,"pbfPerCapita":176.13,"idhm_2010":0.734,"linha_pobreza_2010":15.83,"_source":"fallback"},{"Ano":2015,"cod_municipio":"5108402","municipio":"Rondonópolis","uf":"MT","regiao":"Centro-Oeste","lat":-16.4673,"lon":-54.6372,"populacao":268594,"n_benef":17741,"valor_nominal":27.2284,"valor_2021":37.087,"pbfPerBenef":2090.47,"pbfPerCapita":138.08,"idhm_2010":0.755,"linha_pobreza_2010":12.41,"_source":"fallback"},{"Ano":2015,"cod_municipio":"5108501","municipio":"Sinop","uf":"MT","regiao":"Centro-Oeste","lat":-11.8606,"lon":-55.5025,"populacao":10736,"n_benef":733,"valor_nominal":1.1252,"valor_2021":1.5326,"pbfPerBenef":2090.83,"pbfPerCapita":142.75,"idhm_2010":0.754,"linha_pobreza_2010":12.83,"_source":"fallback"},{"Ano":2015,"cod_municipio":"5201108","municipio":"Anápolis","uf":"GO","regiao":"Centro-Oeste","lat":-16.3267,"lon":-48.953,"populacao":366491,"n_benef":24727,"valor_nominal":36.5641,"valor_2021":49.803,"pbfPerBenef":2014.11,"pbfPerCapita":135.89,"idhm_2010":0.737,"linha_pobreza_2010":12.41,"_source":"fallback"},{"Ano":2015,"cod_municipio":"5208707","municipio":"Goiânia","uf":"GO","regiao":"Centro-Oeste","lat":-16.6869,"lon":-49.2648,"populacao":1430697,"n_benef":76462,"valor_nominal":113.0631,"valor_2021":154.0002,"pbfPerBenef":2014.07,"pbfPerCapita":107.64,"idhm_2010":0.799,"linha_pobreza_2010":9.83,"_source":"fallback"},{"Ano":2015,"cod_municipio":"5215231","municipio":"Luziânia","uf":"GO","regiao":"Centro-Oeste","lat":-16.2517,"lon":-47.9501,"populacao":106677,"n_benef":10625,"valor_nominal":15.7114,"valor_2021":21.4001,"pbfPerBenef":2014.13,"pbfPerCapita":200.61,"idhm_2010":0.701,"linha_pobreza_2010":18.32,"_source":"fallback"},{"Ano":2015,"cod_municipio":"5219753","municipio":"Senador Canedo","uf":"GO","regiao":"Centro-Oeste","lat":-16.7053,"lon":-49.0928,"populacao":69988,"n_benef":6168,"valor_nominal":9.1207,"valor_2021":12.423,"pbfPerBenef":2014.11,"pbfPerCapita":177.5,"idhm_2010":0.726,"linha_pobreza_2010":16.21,"_source":"fallback"},{"Ano":2015,"cod_municipio":"5300108","municipio":"Brasília","uf":"DF","regiao":"Centro-Oeste","lat":-15.7942,"lon":-47.8822,"populacao":2914830,"n_benef":110677,"valor_nominal":149.4401,"valor_2021":203.5482,"pbfPerBenef":1839.12,"pbfPerCapita":69.83,"idhm_2010":0.824,"linha_pobreza_2010":7.41,"_source":"fallback"},{"Ano":2016,"cod_municipio":"1100015","municipio":"Alta Floresta D'Oeste","uf":"RO","regiao":"Norte","lat":-11.9282,"lon":-61.9985,"populacao":25506,"n_benef":2740,"valor_nominal":4.096,"valor_2021":5.249,"pbfPerBenef":1915.7,"pbfPerCapita":205.8,"idhm_2010":0.641,"linha_pobreza_2010":28.45,"_source":"fallback"},{"Ano":2016,"cod_municipio":"1100122","municipio":"Cacoal","uf":"RO","regiao":"Norte","lat":-11.4377,"lon":-61.4474,"populacao":131560,"n_benef":10848,"valor_nominal":16.2112,"valor_2021":20.7745,"pbfPerBenef":1915.05,"pbfPerCapita":157.91,"idhm_2010":0.718,"linha_pobreza_2010":21.83,"_source":"fallback"},{"Ano":2016,"cod_municipio":"1100205","municipio":"Porto Velho","uf":"RO","regiao":"Norte","lat":-8.7619,"lon":-63.9039,"populacao":511219,"n_benef":30760,"valor_nominal":45.9685,"valor_2021":58.9082,"pbfPerBenef":1915.09,"pbfPerCapita":115.23,"idhm_2010":0.736,"linha_pobreza_2010":15.93,"_source":"fallback"},