cod_municipio,municipio,uf,regiao,lat,lon,capital
1100015,Alta Floresta D'Oeste,RO,Norte,-11.9283,-61.9953,0
1100023,Ariquemes,RO,Norte,-9.90571,-63.0325,0
1100031,Cabixi,RO,Norte,-13.4945,-60.552,0
1100049,Cacoal,RO,Norte,-11.4343,-61.4562,0
1100056,Cerejeiras,RO,Norte,-13.187,-60.8168,0
1100064,Colorado do Oeste,RO,Norte,-13.1174,-60.5454,0
1100072,Corumbiara,RO,Norte,-12.9551,-60.8947,0
1100080,Costa Marques,RO,Norte,-12.4367,-64.228,0
1100098,Espigão D'Oeste,RO,Norte,-11.5266,-61.0252,0
1100106,Guajará-Mirim,RO,Norte,-10.7889,-65.3296,0
1100114,Jaru,RO,Norte,-10.4318,-62.4788,0
1100122,Ji-Paraná,RO,Norte,-10.8777,-61.9322,0
1100130,Machadinho D'Oeste,RO,Norte,-9.44363,-61.9818,0
1100148,Nova Brasilândia D'Oeste,RO,Norte,-11.7247,-62.3127,0
1100155,Ouro Preto do Oeste,RO,Norte,-10.7167,-62.2565,0
1100189,Pimenta Bueno,RO,Norte,-11.672,-61.198,0
1100205,Porto Velho,RO,Norte,-8.76077,-63.8999,1
1100254,Presidente Médici,RO,Norte,-11.169,-61.8986,0
1100262,Rio Crespo,RO,Norte,-9.69965,-62.9011,0
1100288,Rolim de Moura,RO,Norte,-11.7271,-61.7714,0
1100296,Santa Luzia D'Oeste,RO,Norte,-11.9074,-61.7777,0
1100304,Vilhena,RO,Norte,-12.7502,-60.1488,0
1100320,São Miguel do Guaporé,RO,Norte,-11.6953,-62.7192,0
1100338,Nova Mamoré,RO,Norte,-10.4077,-65.3346,0
1100346,Alvorada D'Oeste,RO,Norte,-11.3463,-62.2847,0
1100379,Alto Alegre dos Parecis,RO,Norte,-12.132,-61.835,0
1100403,Alto Paraíso,RO,Norte,-9.71429,-63.3188,0
1100452,Buritis,RO,Norte,-10.1943,-63.8324,0
1100502,Novo Horizonte do Oeste,RO,Norte,-11.6961,-61.9951,0
1100601,Cacaulândia,RO,Norte,-10.349,-62.9043,0
1100700,Campo Novo de Rondônia,RO,Norte,-10.5712,-63.6266,0
1100809,Candeias do Jamari,RO,Norte,-8.7907,-63.7005,0
1100908,Castanheiras,RO,Norte,-11.4253,-61.9482,0
1100924,Chupinguaia,RO,Norte,-12.5611,-60.8877,0
1100940,Cujubim,RO,Norte,-9.36065,-62.5846,0
1101005,Governador Jorge Teixeira,RO,Norte,-10.61,-62.7371,0
1101104,Itapuã do Oeste,RO,Norte,-9.19687,-63.1809,0
1101203,Ministro Andreazza,RO,Norte,-11.196,-61.5174,0
1101302,Mirante da Serra,RO,Norte,-11.029,-62.6696,0
1101401,Monte Negro,RO,Norte,-10.2458,-63.29,0
1101435,Nova União,RO,Norte,-10.9068,-62.5564,0
1101450,Parecis,RO,Norte,-12.1754,-61.6032,0
1101468,Pimenteiras do Oeste,RO,Norte,-13.4823,-61.0471,0
1101476,Primavera de Rondônia,RO,Norte,-11.8295,-61.3153,0
1101484,São Felipe D'Oeste,RO,Norte,-11.9023,-61.5026,0
1101492,São Francisco do Guaporé,RO,Norte,-12.052,-63.568,0
1101500,Seringueiras,RO,Norte,-11.8055,-63.0182,0
1101559,Teixeirópolis,RO,Norte,-10.9056,-62.242,0
1101609,Theobroma,RO,Norte,-10.2483,-62.3538,0
1101708,Urupá,RO,Norte,-11.1261,-62.3639,0
1101757,Vale do Anari,RO,Norte,-9.86215,-62.1876,0
1101807,Vale do Paraíso,RO,Norte,-10.4465,-62.1352,0
1200013,Acrelândia,AC,Norte,-9.82581,-66.8972,0
1200054,Assis Brasil,AC,Norte,-10.9298,-69.5738,0
1200104,Brasiléia,AC,Norte,-10.995,-68.7497,0
1200138,Bujari,AC,Norte,-9.81528,-67.955,0
1200179,Capixaba,AC,Norte,-10.566,-67.686,0
1200203,Cruzeiro do Sul,AC,Norte,-7.62762,-72.6756,0
1200252,Epitaciolândia,AC,Norte,-11.0188,-68.7341,0
1200302,Feijó,AC,Norte,-8.17054,-70.351,0
1200328,Jordão,AC,Norte,-9.1908,-71.9503,0
1200336,Mâncio Lima,AC,Norte,-7.61657,-72.8997,0
1200344,Manoel Urbano,AC,Norte,-8.83291,-69.2679,0
1200351,Marechal Thaumaturgo,AC,Norte,-8.93898,-72.7997,0
1200385,Plácido de Castro,AC,Norte,-10.2806,-67.1371,0
1200393,Porto Walter,AC,Norte,-8.26323,-72.7537,0
1200401,Rio Branco,AC,Norte,-9.97499,-67.8243,1
1200427,Rodrigues Alves,AC,Norte,-7.73864,-72.661,0
1200435,Santa Rosa do Purus,AC,Norte,-9.44652,-70.4902,0
1200450,Senador Guiomard,AC,Norte,-10.1497,-67.7362,0
1200500,Sena Madureira,AC,Norte,-9.06596,-68.6571,0
1200609,Tarauacá,AC,Norte,-8.15697,-70.7722,0
1200708,Xapuri,AC,Norte,-10.6516,-68.4969,0
1200807,Porto Acre,AC,Norte,-9.58138,-67.5478,0
1300029,Alvarães,AM,Norte,-3.22727,-64.8007,0
1300060,Amaturá,AM,Norte,-3.37455,-68.2005,0
1300086,Anamã,AM,Norte,-3.56697,-61.3963,0
1300102,Anori,AM,Norte,-3.74603,-61.6575,0
1300144,Apuí,AM,Norte,-7.19409,-59.896,0
1300201,Atalaia do Norte,AM,Norte,-4.37055,-70.1967,0
1300300,Autazes,AM,Norte,-3.58574,-59.1256,0
1300409,Barcelos,AM,Norte,-0.983373,-62.9311,0
1300508,Barreirinha,AM,Norte,-2.79886,-57.0679,0
1300607,Benjamin Constant,AM,Norte,-4.37768,-70.0342,0
1300631,Beruri,AM,Norte,-3.89874,-61.3616,0
1300680,Boa Vista do Ramos,AM,Norte,-2.97409,-57.5873,0
1300706,Boca do Acre,AM,Norte,-8.74232,-67.3919,0
1300805,Borba,AM,Norte,-4.39154,-59.5874,0
1300839,Caapiranga,AM,Norte,-3.31537,-61.2206,0
1300904,Canutama,AM,Norte,-6.52582,-64.3953,0
1301001,Carauari,AM,Norte,-4.88161,-66.9086,0
1301100,Careiro,AM,Norte,-3.76803,-60.369,0
1301159,Careiro da Várzea,AM,Norte,-3.314,-59.5557,0
1301209,Coari,AM,Norte,-4.09412,-63.1441,0
1301308,Codajás,AM,Norte,-3.83053,-62.0658,0
1301407,Eirunepé,AM,Norte,-6.65677,-69.8662,0
1301506,Envira,AM,Norte,-7.43789,-70.0281,0
1301605,Fonte Boa,AM,Norte,-2.52342,-66.0942,0
1301654,Guajará,AM,Norte,-7.53797,-72.5907,0
1301704,Humaitá,AM,Norte,-7.51171,-63.0327,0
1301803,Ipixuna,AM,Norte,-7.04791,-71.6934,0
1301852,Iranduba,AM,Norte,-3.27479,-60.19,0
1301902,Itacoatiara,AM,Norte,-3.13861,-58.4449,0
1301951,Itamarati,AM,Norte,-6.43852,-68.2437,0
1302009,Itapiranga,AM,Norte,-2.74081,-58.0293,0
1302108,Japurá,AM,Norte,-1.88237,-66.9291,0
1302207,Juruá,AM,Norte,-3.48438,-66.0718,0
1302306,Jutaí,AM,Norte,-2.75814,-66.7595,0
1302405,Lábrea,AM,Norte,-7.26413,-64.7948,0
1302504,Manacapuru,AM,Norte,-3.29066,-60.6216,0
1302553,Manaquiri,AM,Norte,-3.44078,-60.4612,0
1302603,Manaus,AM,Norte,-3.11866,-60.0212,1
1302702,Manicoré,AM,Norte,-5.80462,-61.2895,0
1302801,Maraã,AM,Norte,-1.85313,-65.573,0
1302900,Maués,AM,Norte,-3.39289,-57.7067,0
1303007,Nhamundá,AM,Norte,-2.20793,-56.7112,0
1303106,Nova Olinda do Norte,AM,Norte,-3.90037,-59.094,0
1303205,Novo Airão,AM,Norte,-2.63637,-60.9434,0
1303304,Novo Aripuanã,AM,Norte,-5.12593,-60.3732,0
1303403,Parintins,AM,Norte,-2.63741,-56.729,0
1303502,Pauini,AM,Norte,-7.71311,-66.992,0
1303536,Presidente Figueiredo,AM,Norte,-2.02981,-60.0234,0
1303569,Rio Preto da Eva,AM,Norte,-2.7045,-59.6858,0
1303601,Santa Isabel do Rio Negro,AM,Norte,-0.410824,-65.0092,0
1303700,Santo Antônio do Içá,AM,Norte,-3.09544,-67.9463,0
1303809,São Gabriel da Cachoeira,AM,Norte,-0.11909,-67.084,0
1303908,São Paulo de Olivença,AM,Norte,-3.47292,-68.9646,0
1303957,São Sebastião do Uatumã,AM,Norte,-2.55915,-57.8731,0
1304005,Silves,AM,Norte,-2.81748,-58.248,0
1304062,Tabatinga,AM,Norte,-4.2416,-69.9383,0
1304104,Tapauá,AM,Norte,-5.62085,-63.1808,0
1304203,Tefé,AM,Norte,-3.36822,-64.7193,0
1304237,Tonantins,AM,Norte,-2.86582,-67.7919,0
1304260,Uarini,AM,Norte,-2.99609,-65.1133,0
1304302,Urucará,AM,Norte,-2.52936,-57.7538,0
1304401,Urucurituba,AM,Norte,-3.12841,-58.1496,0
1400027,Amajari,RR,Norte,3.64571,-61.3692,0
1400050,Alto Alegre,RR,Norte,2.98858,-61.3072,0
1400100,Boa Vista,RR,Norte,2.82384,-60.6753,1
1400159,Bonfim,RR,Norte,3.36161,-59.8333,0
1400175,Cantá,RR,Norte,2.60994,-60.6058,0
1400209,Caracaraí,RR,Norte,1.82766,-61.1304,0
1400233,Caroebe,RR,Norte,0.884203,-59.6959,0
1400282,Iracema,RR,Norte,2.18305,-61.0415,0
1400308,Mucajaí,RR,Norte,2.43998,-60.9096,0
1400407,Normandia,RR,Norte,3.8853,-59.6204,0
1400456,Pacaraima,RR,Norte,4.4799,-61.1477,0
1400472,Rorainópolis,RR,Norte,0.939956,-60.4389,0
1400506,São João da Baliza,RR,Norte,0.951659,-59.9133,0
1400605,São Luiz do Anauá,RR,Norte,1.01019,-60.0419,0
1400704,Uiramutã,RR,Norte,4.60314,-60.1815,0
1500107,Abaetetuba,PA,Norte,-1.72183,-48.8788,0
1500131,Abel Figueiredo,PA,Norte,-4.95333,-48.3933,0
1500206,Acará,PA,Norte,-1.95383,-48.1985,0
1500305,Afuá,PA,Norte,-0.154874,-50.3861,0
1500347,Água Azul do Norte,PA,Norte,-6.79053,-50.4791,0
1500404,Alenquer,PA,Norte,-1.94623,-54.7384,0
1500503,Almeirim,PA,Norte,-1.52904,-52.5788,0
1500602,Altamira,PA,Norte,-3.20407,-52.21,0
1500701,Anajás,PA,Norte,-0.996811,-49.9354,0
1500800,Ananindeua,PA,Norte,-1.36391,-48.3743,0
1500859,Anapu,PA,Norte,-3.46985,-51.2003,0
1500909,Augusto Corrêa,PA,Norte,-1.05109,-46.6147,0
1500958,Aurora do Pará,PA,Norte,-2.14898,-47.5677,0
1501006,Aveiro,PA,Norte,-3.60841,-55.3199,0
1501105,Bagre,PA,Norte,-1.90057,-50.1987,0
1501204,Baião,PA,Norte,-2.79021,-49.6694,0
1501253,Bannach,PA,Norte,-7.34779,-50.3959,0
1501303,Barcarena,PA,Norte,-1.51187,-48.6195,0
1501402,Belém,PA,Norte,-1.4554,-48.4898,1
1501451,Belterra,PA,Norte,-2.63609,-54.9374,0
1501501,Benevides,PA,Norte,-1.36183,-48.2434,0
1501576,Bom Jesus do Tocantins,PA,Norte,-5.0424,-48.6047,0
1501600,Bonito,PA,Norte,-1.36745,-47.3066,0
1501709,Bragança,PA,Norte,-1.06126,-46.7826,0
1501725,Brasil Novo,PA,Norte,-3.29792,-52.534,0
1501758,Brejo Grande do Araguaia,PA,Norte,-5.69822,-48.4103,0
1501782,Breu Branco,PA,Norte,-3.77191,-49.5735,0
1501808,Breves,PA,Norte,-1.68036,-50.4791,0
1501907,Bujaru,PA,Norte,-1.51762,-48.0381,0
1501956,Cachoeira do Piriá,PA,Norte,-1.75974,-46.5459,0
1502004,Cachoeira do Arari,PA,Norte,-1.01226,-48.9503,0
1502103,Cametá,PA,Norte,-2.24295,-49.4979,0
1502152,Canaã dos Carajás,PA,Norte,-6.49659,-49.8776,0
1502202,Capanema,PA,Norte,-1.20529,-47.1778,0
1502301,Capitão Poço,PA,Norte,-1.74785,-47.0629,0
1502400,Castanhal,PA,Norte,-1.29797,-47.9167,0
1502509,Chaves,PA,Norte,-0.164154,-49.987,0
1502608,Colares,PA,Norte,-0.936423,-48.2803,0
1502707,Conceição do Araguaia,PA,Norte,-8.26136,-49.2689,0
1502756,Concórdia do Pará,PA,Norte,-1.99238,-47.9422,0
1502764,Cumaru do Norte,PA,Norte,-7.81097,-50.7698,0
1502772,Curionópolis,PA,Norte,-6.09965,-49.6068,0
1502806,Curralinho,PA,Norte,-1.81179,-49.7952,0
1502855,Curuá,PA,Norte,-1.88775,-55.1168,0
1502905,Curuçá,PA,Norte,-0.733214,-47.8515,0
1502939,Dom Eliseu,PA,Norte,-4.19944,-47.8245,0
1502954,Eldorado do Carajás,PA,Norte,-6.10389,-49.3553,0
1503002,Faro,PA,Norte,-2.16805,-56.7405,0
1503044,Floresta do Araguaia,PA,Norte,-7.55335,-49.7125,0
1503077,Garrafão do Norte,PA,Norte,-1.92986,-47.0505,0
1503093,Goianésia do Pará,PA,Norte,-3.84338,-49.0974,0
1503101,Gurupá,PA,Norte,-1.41412,-51.6338,0
1503200,Igarapé-Açu,PA,Norte,-1.12539,-47.626,0
1503309,Igarapé-Miri,PA,Norte,-1.97533,-48.9575,0
1503408,Inhangapi,PA,Norte,-1.4349,-47.9114,0
1503457,Ipixuna do Pará,PA,Norte,-2.55992,-47.5059,0
1503507,Irituia,PA,Norte,-1.76984,-47.446,0
1503606,Itaituba,PA,Norte,-4.2667,-55.9926,0
1503705,Itupiranga,PA,Norte,-5.13272,-49.3358,0
1503754,Jacareacanga,PA,Norte,-6.21469,-57.7544,0
1503804,Jacundá,PA,Norte,-4.44617,-49.1153,0
1503903,Juruti,PA,Norte,-2.16347,-56.0889,0
1504000,Limoeiro do Ajuru,PA,Norte,-1.8985,-49.3903,0
1504059,Mãe do Rio,PA,Norte,-2.05683,-47.5601,0
1504109,Magalhães Barata,PA,Norte,-0.803391,-47.6014,0
1504208,Marabá,PA,Norte,-5.38075,-49.1327,0
1504307,Maracanã,PA,Norte,-0.778899,-47.452,0
1504406,Marapanim,PA,Norte,-0.714702,-47.7034,0
1504422,Marituba,PA,Norte,-1.36002,-48.3421,0
1504455,Medicilândia,PA,Norte,-3.44637,-52.8875,0
1504505,Melgaço,PA,Norte,-1.8032,-50.7149,0
1504604,Mocajuba,PA,Norte,-2.5831,-49.5042,0
1504703,Moju,PA,Norte,-1.88993,-48.7668,0
1504752,Mojuí dos Campos,PA,Norte,-2.6822,-54.6425,0
1504802,Monte Alegre,PA,Norte,-1.99768,-54.0724,0
1504901,Muaná,PA,Norte,-1.53936,-49.2224,0
1504950,Nova Esperança do Piriá,PA,Norte,-2.26693,-46.9731,0
1504976,Nova Ipixuna,PA,Norte,-4.91622,-49.0822,0
1505007,Nova Timboteua,PA,Norte,-1.20874,-47.3921,0
1505031,Novo Progresso,PA,Norte,-7.14347,-55.3786,0
1505064,Novo Repartimento,PA,Norte,-4.24749,-49.9499,0
1505106,Óbidos,PA,Norte,-1.90107,-55.5208,0
1505205,Oeiras do Pará,PA,Norte,-2.00358,-49.8628,0
1505304,Oriximiná,PA,Norte,-1.75989,-55.8579,0
1505403,Ourém,PA,Norte,-1.54168,-47.1126,0
1505437,Ourilândia do Norte,PA,Norte,-6.7529,-51.0858,0
1505486,Pacajá,PA,Norte,-3.83542,-50.6399,0
1505494,Palestina do Pará,PA,Norte,-5.74027,-48.3181,0
1505502,Paragominas,PA,Norte,-3.00212,-47.3527,0
1505536,Parauapebas,PA,Norte,-6.06781,-49.9037,0
1505551,Pau D'Arco,PA,Norte,-1.59772,-46.9268,0
1505601,Peixe-Boi,PA,Norte,-1.19382,-47.324,0
1505635,Piçarra,PA,Norte,-6.43778,-48.8716,0
1505650,Placas,PA,Norte,-3.86813,-54.2124,0
1505700,Ponta de Pedras,PA,Norte,-1.39587,-48.8661,0
1505809,Portel,PA,Norte,-1.93639,-50.8194,0
1505908,Porto de Moz,PA,Norte,-1.74691,-52.2361,0
1506005,Prainha,PA,Norte,-1.798,-53.4779,0
1506104,Primavera,PA,Norte,-0.945439,-47.1253,0
1506112,Quatipuru,PA,Norte,-0.899604,-47.0134,0
1506138,Redenção,PA,Norte,-8.02529,-50.0317,0
1506161,Rio Maria,PA,Norte,-7.31236,-50.0379,0
1506187,Rondon do Pará,PA,Norte,-4.77793,-48.067,0
1506195,Rurópolis,PA,Norte,-4.10028,-54.9092,0
1506203,Salinópolis,PA,Norte,-0.630815,-47.3465,0
1506302,Salvaterra,PA,Norte,-0.758444,-48.5139,0
1506351,Santa Bárbara do Pará,PA,Norte,-1.19219,-48.238,0
1506401,Santa Cruz do Arari,PA,Norte,-0.661019,-49.1771,0
1506500,Santa Izabel do Pará,PA,Norte,-1.29686,-48.1606,0
1506559,Santa Luzia do Pará,PA,Norte,-1.52147,-46.9008,0
1506583,Santa Maria das Barreiras,PA,Norte,-8.85784,-49.7215,0
1506609,Santa Maria do Pará,PA,Norte,-1.35392,-47.5712,0
1506708,Santana do Araguaia,PA,Norte,-9.3281,-50.35,0
1506807,Santarém,PA,Norte,-2.43849,-54.6996,0
1506906,Santarém Novo,PA,Norte,-0.93097,-47.3855,0
1507003,Santo Antônio do Tauá,PA,Norte,-1.1522,-48.1314,0
1507102,São Caetano de Odivelas,PA,Norte,-0.747293,-48.0246,0
1507151,São Domingos do Araguaia,PA,Norte,-5.53732,-48.7366,0
1507201,São Domingos do Capim,PA,Norte,-1.68768,-47.7665,0
1507300,São Félix do Xingu,PA,Norte,-6.64254,-51.9904,0
1507409,São Francisco do Pará,PA,Norte,-1.16963,-47.7917,0
1507458,São Geraldo do Araguaia,PA,Norte,-6.39471,-48.5592,0
1507466,São João da Ponta,PA,Norte,-0.857885,-47.918,0
1507474,São João de Pirabas,PA,Norte,-0.780222,-47.181,0
1507508,São João do Araguaia,PA,Norte,-5.36334,-48.7926,0
1507607,São Miguel do Guamá,PA,Norte,-1.61307,-47.4784,0
1507706,São Sebastião da Boa Vista,PA,Norte,-1.71597,-49.5249,0
1507755,Sapucaia,PA,Norte,-6.94018,-49.6834,0
1507805,Senador José Porfírio,PA,Norte,-4.31242,-51.5764,0
1507904,Soure,PA,Norte,-0.73032,-48.5015,0
1507953,Tailândia,PA,Norte,-2.94584,-48.9489,0
1507961,Terra Alta,PA,Norte,-1.02963,-47.9004,0
1507979,Terra Santa,PA,Norte,-2.10443,-56.4877,0
1508001,Tomé-Açu,PA,Norte,-2.41302,-48.1415,0
1508035,Tracuateua,PA,Norte,-1.07653,-46.9031,0
1508050,Trairão,PA,Norte,-4.57347,-55.9429,0
1508084,Tucumã,PA,Norte,-6.74687,-51.1626,0
1508100,Tucuruí,PA,Norte,-3.7657,-49.6773,0
1508126,Ulianópolis,PA,Norte,-3.75007,-47.4892,0
1508159,Uruará,PA,Norte,-3.71519,-53.7396,0
1508209,Vigia,PA,Norte,-0.861194,-48.1386,0
1508308,Viseu,PA,Norte,-1.19124,-46.1399,0
1508357,Vitória do Xingu,PA,Norte,-2.87922,-52.0088,0
1508407,Xinguara,PA,Norte,-7.0983,-49.9437,0
1600055,Serra do Navio,AP,Norte,0.901357,-52.0036,0
1600105,Amapá,AP,Norte,2.05267,-50.7957,0
1600154,Pedra Branca do Amapari,AP,Norte,0.777424,-51.9503,0
1600204,Calçoene,AP,Norte,2.50475,-50.9512,0
1600212,Cutias,AP,Norte,0.970761,-50.8005,0
1600238,Ferreira Gomes,AP,Norte,0.857256,-51.1795,0
1600253,Itaubal,AP,Norte,0.602185,-50.6996,0
1600279,Laranjal do Jari,AP,Norte,-0.804911,-52.453,0
1600303,Macapá,AP,Norte,0.034934,-51.0694,1
1600402,Mazagão,AP,Norte,-0.11336,-51.2891,0
1600501,Oiapoque,AP,Norte,3.84074,-51.8331,0
1600535,Porto Grande,AP,Norte,0.71243,-51.4155,0
1600550,Pracuúba,AP,Norte,1.74543,-50.7892,0
1600600,Santana,AP,Norte,-0.045434,-51.1729,0
1600709,Tartarugalzinho,AP,Norte,1.50652,-50.9087,0
1600808,Vitória do Jari,AP,Norte,-0.938,-52.424,0
1700251,Abreulândia,TO,Norte,-9.62101,-49.1518,0
1700301,Aguiarnópolis,TO,Norte,-6.55409,-47.4702,0
1700350,Aliança do Tocantins,TO,Norte,-11.3056,-48.9361,0
1700400,Almas,TO,Norte,-11.5706,-47.1792,0
1700707,Alvorada,TO,Norte,-12.4785,-49.1249,0
1701002,Ananás,TO,Norte,-6.36437,-48.0735,0
1701051,Angico,TO,Norte,-6.39179,-47.8611,0
1701101,Aparecida do Rio Negro,TO,Norte,-9.94139,-47.9638,0
1701309,Aragominas,TO,Norte,-7.16005,-48.5291,0
1701903,Araguacema,TO,Norte,-8.80755,-49.5569,0
1702000,Araguaçu,TO,Norte,-12.9289,-49.8231,0
1702109,Araguaína,TO,Norte,-7.19238,-48.2044,0
1702158,Araguanã,TO,Norte,-6.58225,-48.6395,0
1702208,Araguatins,TO,Norte,-5.64659,-48.1232,0
1702307,Arapoema,TO,Norte,-7.65463,-49.0637,0
1702406,Arraias,TO,Norte,-12.9287,-46.9359,0
1702554,Augustinópolis,TO,Norte,-5.46863,-47.8863,0
1702703,Aurora do Tocantins,TO,Norte,-12.7105,-46.4076,0
1702901,Axixá do Tocantins,TO,Norte,-5.61275,-47.7701,0
1703008,Babaçulândia,TO,Norte,-7.20923,-47.7613,0
1703057,Bandeirantes do Tocantins,TO,Norte,-7.75612,-48.5836,0
1703073,Barra do Ouro,TO,Norte,-7.69593,-47.6776,0
1703107,Barrolândia,TO,Norte,-9.83404,-48.7252,0
1703206,Bernardo Sayão,TO,Norte,-7.87481,-48.8893,0
1703305,Bom Jesus do Tocantins,TO,Norte,-8.96306,-48.165,0
1703602,Brasilândia do Tocantins,TO,Norte,-8.38918,-48.4822,0
1703701,Brejinho de Nazaré,TO,Norte,-11.0058,-48.5683,0
1703800,Buriti do Tocantins,TO,Norte,-5.31448,-48.2271,0
1703826,Cachoeirinha,TO,Norte,-6.1156,-47.9234,0
1703842,Campos Lindos,TO,Norte,-7.98956,-46.8645,0
1703867,Cariri do Tocantins,TO,Norte,-11.8881,-49.1609,0
1703883,Carmolândia,TO,Norte,-7.03262,-48.3978,0
1703891,Carrasco Bonito,TO,Norte,-5.31415,-48.0314,0
1703909,Caseara,TO,Norte,-9.27612,-49.9521,0
1704105,Centenário,TO,Norte,-8.96103,-47.3304,0
1704600,Chapada de Areia,TO,Norte,-10.1419,-49.1403,0
1705102,Chapada da Natividade,TO,Norte,-11.6175,-47.7486,0
1705508,Colinas do Tocantins,TO,Norte,-8.05764,-48.4757,0
1705557,Combinado,TO,Norte,-12.7917,-46.5388,0
1705607,Conceição do Tocantins,TO,Norte,-12.2209,-47.2951,0
1706001,Couto Magalhães,TO,Norte,-8.28411,-49.2473,0
1706100,Cristalândia,TO,Norte,-10.5985,-49.1942,0
1706258,Crixás do Tocantins,TO,Norte,-11.0994,-48.9152,0
1706506,Darcinópolis,TO,Norte,-6.71591,-47.7597,0
1707009,Dianópolis,TO,Norte,-11.624,-46.8198,0
1707108,Divinópolis do Tocantins,TO,Norte,-9.80018,-49.2169,0
1707207,Dois Irmãos do Tocantins,TO,Norte,-9.25534,-49.0638,0
1707306,Dueré,TO,Norte,-11.3416,-49.2716,0
1707405,Esperantina,TO,Norte,-5.36593,-48.5378,0
1707553,Fátima,TO,Norte,-10.7603,-48.9076,0
1707652,Figueirópolis,TO,Norte,-12.1312,-49.1748,0
1707702,Filadélfia,TO,Norte,-7.33501,-47.4954,0
1708205,Formoso do Araguaia,TO,Norte,-11.7976,-49.5316,0
1708254,Tabocão,TO,Norte,-9.05611,-48.5206,0
1708304,Goianorte,TO,Norte,-8.77413,-48.9313,0
1709005,Goiatins,TO,Norte,-7.71478,-47.3252,0
1709302,Guaraí,TO,Norte,-8.83543,-48.5114,0
1709500,Gurupi,TO,Norte,-11.7279,-49.068,0
1709807,Ipueiras,TO,Norte,-11.2329,-48.46,0
1710508,Itacajá,TO,Norte,-8.39293,-47.7726,0
1710706,Itaguatins,TO,Norte,-5.77267,-47.4864,0
1710904,Itapiratins,TO,Norte,-8.37982,-48.1072,0
1711100,Itaporã do Tocantins,TO,Norte,-8.57172,-48.6895,0
1711506,Jaú do Tocantins,TO,Norte,-12.6509,-48.589,0
1711803,Juarina,TO,Norte,-8.11951,-49.0643,0
1711902,Lagoa da Confusão,TO,Norte,-10.7906,-49.6199,0
1711951,Lagoa do Tocantins,TO,Norte,-10.368,-47.538,0
1712009,Lajeado,TO,Norte,-9.74996,-48.3565,0
1712157,Lavandeira,TO,Norte,-12.7847,-46.5099,0
1712405,Lizarda,TO,Norte,-9.59002,-46.6738,0
1712454,Luzinópolis,TO,Norte,-6.17794,-47.8582,0
1712504,Marianópolis do Tocantins,TO,Norte,-9.79377,-49.6553,0
1712702,Mateiros,TO,Norte,-10.5464,-46.4168,0
1712801,Maurilândia do Tocantins,TO,Norte,-5.95169,-47.5125,0
1713205,Miracema do Tocantins,TO,Norte,-9.56556,-48.393,0
1713304,Miranorte,TO,Norte,-9.52907,-48.5922,0
1713601,Monte do Carmo,TO,Norte,-10.7611,-48.1114,0
1713700,Monte Santo do Tocantins,TO,Norte,-10.0075,-48.9941,0
1713809,Palmeiras do Tocantins,TO,Norte,-6.61658,-47.5464,0
1713957,Muricilândia,TO,Norte,-7.14669,-48.6091,0
1714203,Natividade,TO,Norte,-11.7034,-47.7223,0
1714302,Nazaré,TO,Norte,-6.37496,-47.6643,0
1714880,Nova Olinda,TO,Norte,-7.63171,-48.4252,0
1715002,Nova Rosalândia,TO,Norte,-10.5651,-48.9125,0
1715101,Novo Acordo,TO,Norte,-9.97063,-47.6785,0
1715150,Novo Alegre,TO,Norte,-12.9217,-46.5713,0
1715259,Novo Jardim,TO,Norte,-11.826,-46.6325,0
1715507,Oliveira de Fátima,TO,Norte,-10.707,-48.9086,0
1715705,Palmeirante,TO,Norte,-7.84786,-47.9242,0
1715754,Palmeirópolis,TO,Norte,-13.0447,-48.4026,0
1716109,Paraíso do Tocantins,TO,Norte,-10.175,-48.8823,0
1716208,Paranã,TO,Norte,-12.6167,-47.8734,0
1716307,Pau D'Arco,TO,Norte,-7.53919,-49.367,0
1716505,Pedro Afonso,TO,Norte,-8.97034,-48.1729,0
1716604,Peixe,TO,Norte,-12.0254,-48.5395,0
1716653,Pequizeiro,TO,Norte,-8.5932,-48.9327,0
1716703,Colméia,TO,Norte,-8.72463,-48.7638,0
1717008,Pindorama do Tocantins,TO,Norte,-11.1311,-47.5726,0
1717206,Piraquê,TO,Norte,-6.77302,-48.2958,0
1717503,Pium,TO,Norte,-10.442,-49.1876,0
1717800,Ponte Alta do Bom Jesus,TO,Norte,-12.0853,-46.4825,0
1717909,Ponte Alta do Tocantins,TO,Norte,-10.7481,-47.5276,0
1718006,Porto Alegre do Tocantins,TO,Norte,-11.618,-47.0621,0
1718204,Porto Nacional,TO,Norte,-10.7027,-48.408,0
1718303,Praia Norte,TO,Norte,-5.39281,-47.8111,0
1718402,Presidente Kennedy,TO,Norte,-8.5406,-48.5062,0
1718451,Pugmil,TO,Norte,-10.424,-48.8957,0
1718501,Recursolândia,TO,Norte,-8.7227,-47.2421,0
1718550,Riachinho,TO,Norte,-6.44005,-48.1371,0
1718659,Rio da Conceição,TO,Norte,-11.3949,-46.8847,0
1718709,Rio dos Bois,TO,Norte,-9.34425,-48.5245,0
1718758,Rio Sono,TO,Norte,-9.35002,-47.888,0
1718808,Sampaio,TO,Norte,-5.35423,-47.8782,0
1718840,Sandolândia,TO,Norte,-12.538,-49.9242,0
1718865,Santa Fé do Araguaia,TO,Norte,-7.15803,-48.7165,0
1718881,Santa Maria do Tocantins,TO,Norte,-8.8046,-47.7887,0
1718899,Santa Rita do Tocantins,TO,Norte,-10.8617,-48.9161,0
1718907,Santa Rosa do Tocantins,TO,Norte,-11.4474,-48.1216,0
1719004,Santa Tereza do Tocantins,TO,Norte,-10.2746,-47.8033,0
1720002,Santa Terezinha do Tocantins,TO,Norte,-6.44438,-47.6684,0
1720101,São Bento do Tocantins,TO,Norte,-6.0258,-47.9012,0
1720150,São Félix do Tocantins,TO,Norte,-10.1615,-46.6618,0
1720200,São Miguel do Tocantins,TO,Norte,-5.56305,-47.5743,0
1720259,São Salvador do Tocantins,TO,Norte,-12.7458,-48.2352,0
1720309,São Sebastião do Tocantins,TO,Norte,-5.26131,-48.2021,0
1720499,São Valério,TO,Norte,-11.9743,-48.2353,0
1720655,Silvanópolis,TO,Norte,-11.1471,-48.1694,0
1720804,Sítio Novo do Tocantins,TO,Norte,-5.6012,-47.6381,0
1720853,Sucupira,TO,Norte,-11.993,-48.9685,0
1720903,Taguatinga,TO,Norte,-12.4026,-46.437,0
1720937,Taipas do Tocantins,TO,Norte,-12.1873,-46.9797,0
1720978,Talismã,TO,Norte,-12.7949,-49.0896,0
1721000,Palmas,TO,Norte,-10.24,-48.3558,1
1721109,Tocantínia,TO,Norte,-9.5632,-48.3741,0
1721208,Tocantinópolis,TO,Norte,-6.32447,-47.4224,0
1721257,Tupirama,TO,Norte,-8.97168,-48.1883,0
1721307,Tupiratins,TO,Norte,-8.39388,-48.1277,0
1722081,Wanderlândia,TO,Norte,-6.85274,-47.9601,0
1722107,Xambioá,TO,Norte,-6.4141,-48.532,0
2100055,Açailândia,MA,Nordeste,-4.94714,-47.5004,0
2100105,Afonso Cunha,MA,Nordeste,-4.13631,-43.3275,0
2100154,Água Doce do Maranhão,MA,Nordeste,-2.84048,-42.1189,0
2100204,Alcântara,MA,Nordeste,-2.39574,-44.4062,0
2100303,Aldeias Altas,MA,Nordeste,-4.62621,-43.4689,0
2100402,Altamira do Maranhão,MA,Nordeste,-4.16598,-45.4706,0
2100436,Alto Alegre do Maranhão,MA,Nordeste,-4.213,-44.446,0
2100477,Alto Alegre do Pindaré,MA,Nordeste,-3.66689,-45.8421,0
2100501,Alto Parnaíba,MA,Nordeste,-9.10273,-45.9303,0
2100550,Amapá do Maranhão,MA,Nordeste,-1.67524,-46.0024,0
2100600,Amarante do Maranhão,MA,Nordeste,-5.56913,-46.7473,0
2100709,Anajatuba,MA,Nordeste,-3.26269,-44.6126,0
2100808,Anapurus,MA,Nordeste,-3.67577,-43.1014,0
2100832,Apicum-Açu,MA,Nordeste,-1.45862,-45.0864,0
2100873,Araguanã,MA,Nordeste,-2.94644,-45.6589,0
2100907,Araioses,MA,Nordeste,-2.89091,-41.905,0
2100956,Arame,MA,Nordeste,-4.88347,-46.0032,0
2101004,Arari,MA,Nordeste,-3.45214,-44.7665,0
2101103,Axixá,MA,Nordeste,-2.83939,-44.062,0
2101202,Bacabal,MA,Nordeste,-4.22447,-44.7832,0
2101251,Bacabeira,MA,Nordeste,-2.96452,-44.3164,0
2101301,Bacuri,MA,Nordeste,-1.6965,-45.1328,0
2101350,Bacurituba,MA,Nordeste,-2.71,-44.7329,0
2101400,Balsas,MA,Nordeste,-7.53214,-46.0372,0
2101509,Barão de Grajaú,MA,Nordeste,-6.74463,-43.0261,0
2101608,Barra do Corda,MA,Nordeste,-5.49682,-45.2485,0
2101707,Barreirinhas,MA,Nordeste,-2.75863,-42.8232,0
2101731,Belágua,MA,Nordeste,-3.15485,-43.5122,0
2101772,Bela Vista do Maranhão,MA,Nordeste,-3.72618,-45.3075,0
2101806,Benedito Leite,MA,Nordeste,-7.21037,-44.5577,0
2101905,Bequimão,MA,Nordeste,-2.44162,-44.7842,0
2101939,Bernardo do Mearim,MA,Nordeste,-4.62666,-44.7608,0
2101970,Boa Vista do Gurupi,MA,Nordeste,-1.77614,-46.3002,0
2102002,Bom Jardim,MA,Nordeste,-3.54129,-45.606,0
2102036,Bom Jesus das Selvas,MA,Nordeste,-4.47638,-46.8641,0
2102077,Bom Lugar,MA,Nordeste,-4.37311,-45.0326,0
2102101,Brejo,MA,Nordeste,-3.67796,-42.7527,0
2102150,Brejo de Areia,MA,Nordeste,-4.334,-45.581,0
2102200,Buriti,MA,Nordeste,-3.94169,-42.9179,0
2102309,Buriti Bravo,MA,Nordeste,-5.83239,-43.8353,0
2102325,Buriticupu,MA,Nordeste,-4.32375,-46.4409,0
2102358,Buritirana,MA,Nordeste,-5.59823,-47.0131,0
2102374,Cachoeira Grande,MA,Nordeste,-2.93074,-44.0528,0
2102408,Cajapió,MA,Nordeste,-2.87326,-44.6741,0
2102507,Cajari,MA,Nordeste,-3.32742,-45.0145,0
2102556,Campestre do Maranhão,MA,Nordeste,-6.17075,-47.3625,0
2102606,Cândido Mendes,MA,Nordeste,-1.43265,-45.7161,0
2102705,Cantanhede,MA,Nordeste,-3.63757,-44.383,0
2102754,Capinzal do Norte,MA,Nordeste,-4.7236,-44.328,0
2102804,Carolina,MA,Nordeste,-7.33584,-47.4634,0
2102903,Carutapera,MA,Nordeste,-1.19696,-46.0085,0
2103000,Caxias,MA,Nordeste,-4.86505,-43.3617,0
2103109,Cedral,MA,Nordeste,-2.00027,-44.5281,0
2103125,Central do Maranhão,MA,Nordeste,-2.19831,-44.8254,0
2103158,Centro do Guilherme,MA,Nordeste,-2.44891,-46.0345,0
2103174,Centro Novo do Maranhão,MA,Nordeste,-2.12696,-46.1228,0
2103208,Chapadinha,MA,Nordeste,-3.73875,-43.3538,0
2103257,Cidelândia,MA,Nordeste,-5.17465,-47.7781,0
2103307,Codó,MA,Nordeste,-4.45562,-43.8924,0
2103406,Coelho Neto,MA,Nordeste,-4.25245,-43.0108,0
2103505,Colinas,MA,Nordeste,-6.03199,-44.2543,0
2103554,Conceição do Lago-Açu,MA,Nordeste,-3.85142,-44.8895,0
2103604,Coroatá,MA,Nordeste,-4.13442,-44.1244,0
2103703,Cururupu,MA,Nordeste,-1.81475,-44.8644,0
2103752,Davinópolis,MA,Nordeste,-5.54637,-47.4217,0
2103802,Dom Pedro,MA,Nordeste,-5.03518,-44.4409,0
2103901,Duque Bacelar,MA,Nordeste,-4.15002,-42.9477,0
2104008,Esperantinópolis,MA,Nordeste,-4.87938,-44.6926,0
2104057,Estreito,MA,Nordeste,-6.56077,-47.4431,0
2104073,Feira Nova do Maranhão,MA,Nordeste,-6.96508,-46.6786,0
2104081,Fernando Falcão,MA,Nordeste,-6.16207,-44.8979,0
2104099,Formosa da Serra Negra,MA,Nordeste,-6.44017,-46.1916,0
2104107,Fortaleza dos Nogueiras,MA,Nordeste,-6.95983,-46.1749,0
2104206,Fortuna,MA,Nordeste,-5.72792,-44.1565,0
2104305,Godofredo Viana,MA,Nordeste,-1.40259,-45.7795,0
2104404,Gonçalves Dias,MA,Nordeste,-5.1475,-44.3013,0
2104503,Governador Archer,MA,Nordeste,-5.02078,-44.2754,0
2104552,Governador Edison Lobão,MA,Nordeste,-5.74973,-47.3646,0
2104602,Governador Eugênio Barros,MA,Nordeste,-5.31897,-44.2469,0
2104628,Governador Luiz Rocha,MA,Nordeste,-5.47835,-44.0774,0
2104651,Governador Newton Bello,MA,Nordeste,-3.43245,-45.6619,0
2104677,Governador Nunes Freire,MA,Nordeste,-2.12899,-45.8777,0
2104701,Graça Aranha,MA,Nordeste,-5.40547,-44.3358,0
2104800,Grajaú,MA,Nordeste,-5.81367,-46.1462,0
2104909,Guimarães,MA,Nordeste,-2.12755,-44.602,0
2105005,Humberto de Campos,MA,Nordeste,-2.59828,-43.4649,0
2105104,Icatu,MA,Nordeste,-2.77206,-44.0501,0
2105153,Igarapé do Meio,MA,Nordeste,-3.65771,-45.2114,0
2105203,Igarapé Grande,MA,Nordeste,-4.6625,-44.8558,0
2105302,Imperatriz,MA,Nordeste,-5.51847,-47.4777,0
2105351,Itaipava do Grajaú,MA,Nordeste,-5.14252,-45.7877,0
2105401,Itapecuru Mirim,MA,Nordeste,-3.40202,-44.3508,0
2105427,Itinga do Maranhão,MA,Nordeste,-4.45293,-47.5235,0
2105450,Jatobá,MA,Nordeste,-5.82282,-44.2153,0
2105476,Jenipapo dos Vieiras,MA,Nordeste,-5.36237,-45.6356,0
2105500,João Lisboa,MA,Nordeste,-5.44363,-47.4064,0
2105609,Joselândia,MA,Nordeste,-4.98611,-44.6958,0
2105658,Junco do Maranhão,MA,Nordeste,-1.83888,-46.09,0
2105708,Lago da Pedra,MA,Nordeste,-4.56974,-45.1319,0
2105807,Lago do Junco,MA,Nordeste,-4.609,-45.049,0
2105906,Lago Verde,MA,Nordeste,-3.94661,-44.826,0
2105922,Lagoa do Mato,MA,Nordeste,-6.05023,-43.5333,0
2105948,Lago dos Rodrigues,MA,Nordeste,-4.61173,-44.9798,0
2105963,Lagoa Grande do Maranhão,MA,Nordeste,-4.98893,-45.3816,0
2105989,Lajeado Novo,MA,Nordeste,-6.18539,-47.0293,0
2106003,Lima Campos,MA,Nordeste,-4.51837,-44.4646,0
2106102,Loreto,MA,Nordeste,-7.08111,-45.1451,0
2106201,Luís Domingues,MA,Nordeste,-1.27492,-45.867,0
2106300,Magalhães de Almeida,MA,Nordeste,-3.39232,-42.2117,0
2106326,Maracaçumé,MA,Nordeste,-2.04918,-45.9587,0
2106359,Marajá do Sena,MA,Nordeste,-4.62806,-45.4531,0
2106375,Maranhãozinho,MA,Nordeste,-2.24078,-45.8507,0
2106409,Mata Roma,MA,Nordeste,-3.62035,-43.1112,0
2106508,Matinha,MA,Nordeste,-3.09849,-45.035,0
2106607,Matões,MA,Nordeste,-5.51359,-43.2018,0
2106631,Matões do Norte,MA,Nordeste,-3.6244,-44.5468,0
2106672,Milagres do Maranhão,MA,Nordeste,-3.57443,-42.6131,0
2106706,Mirador,MA,Nordeste,-6.37454,-44.3683,0
2106755,Miranda do Norte,MA,Nordeste,-3.56313,-44.5814,0
2106805,Mirinzal,MA,Nordeste,-2.07094,-44.7787,0
2106904,Monção,MA,Nordeste,-3.48125,-45.2496,0
2107001,Montes Altos,MA,Nordeste,-5.83067,-47.0673,0
2107100,Morros,MA,Nordeste,-2.85379,-44.0357,0
2107209,Nina Rodrigues,MA,Nordeste,-3.46788,-43.9134,0
2107258,Nova Colinas,MA,Nordeste,-7.12263,-46.2607,0
2107308,Nova Iorque,MA,Nordeste,-6.73047,-44.0471,0
2107357,Nova Olinda do Maranhão,MA,Nordeste,-2.84227,-45.6953,0
2107407,Olho d'Água das Cunhãs,MA,Nordeste,-4.13417,-45.1163,0
2107456,Olinda Nova do Maranhão,MA,Nordeste,-2.99295,-44.9897,0
2107506,Paço do Lumiar,MA,Nordeste,-2.51657,-44.1019,0
2107605,Palmeirândia,MA,Nordeste,-2.64433,-44.8933,0
2107704,Paraibano,MA,Nordeste,-6.4264,-43.9792,0
2107803,Parnarama,MA,Nordeste,-5.67365,-43.1011,0
2107902,Passagem Franca,MA,Nordeste,-6.17745,-43.7755,0
2108009,Pastos Bons,MA,Nordeste,-6.60296,-44.0745,0
2108058,Paulino Neves,MA,Nordeste,-2.72094,-42.5258,0
2108108,Paulo Ramos,MA,Nordeste,-4.44485,-45.2398,0
2108207,Pedreiras,MA,Nordeste,-4.56482,-44.6006,0
2108256,Pedro do Rosário,MA,Nordeste,-2.97272,-45.3493,0
2108306,Penalva,MA,Nordeste,-3.27674,-45.1768,0
2108405,Peri Mirim,MA,Nordeste,-2.57676,-44.8504,0
2108454,Peritoró,MA,Nordeste,-4.37459,-44.3369,0
2108504,Pindaré-Mirim,MA,Nordeste,-3.60985,-45.342,0
2108603,Pinheiro,MA,Nordeste,-2.52224,-45.0788,0
2108702,Pio XII,MA,Nordeste,-3.89315,-45.1759,0
2108801,Pirapemas,MA,Nordeste,-3.72041,-44.2216,0
2108900,Poção de Pedras,MA,Nordeste,-4.74626,-44.9432,0
2109007,Porto Franco,MA,Nordeste,-6.34149,-47.3962,0
2109056,Porto Rico do Maranhão,MA,Nordeste,-1.85925,-44.5842,0
2109106,Presidente Dutra,MA,Nordeste,-5.2898,-44.495,0
2109205,Presidente Juscelino,MA,Nordeste,-2.91872,-44.0715,0
2109239,Presidente Médici,MA,Nordeste,-2.38991,-45.82,0
2109270,Presidente Sarney,MA,Nordeste,-2.58799,-45.3595,0
2109304,Presidente Vargas,MA,Nordeste,-3.40787,-44.0234,0
2109403,Primeira Cruz,MA,Nordeste,-2.50568,-43.4232,0
2109452,Raposa,MA,Nordeste,-2.4254,-44.0973,0
2109502,Riachão,MA,Nordeste,-7.35819,-46.6225,0
2109551,Ribamar Fiquene,MA,Nordeste,-5.93067,-47.3888,0
2109601,Rosário,MA,Nordeste,-2.93444,-44.2531,0
2109700,Sambaíba,MA,Nordeste,-7.13447,-45.3515,0
2109759,Santa Filomena do Maranhão,MA,Nordeste,-5.49671,-44.5638,0
2109809,Santa Helena,MA,Nordeste,-2.24426,-45.29,0
2109908,Santa Inês,MA,Nordeste,-3.65112,-45.3774,0
2110005,Santa Luzia,MA,Nordeste,-4.06873,-45.69,0
2110039,Santa Luzia do Paruá,MA,Nordeste,-2.51123,-45.7801,0
2110104,Santa Quitéria do Maranhão,MA,Nordeste,-3.49308,-42.5688,0
2110203,Santa Rita,MA,Nordeste,-3.14241,-44.3211,0
2110237,Santana do Maranhão,MA,Nordeste,-3.109,-42.4064,0
2110278,Santo Amaro do Maranhão,MA,Nordeste,-2.50068,-43.238,0
2110302,Santo Antônio dos Lopes,MA,Nordeste,-4.86613,-44.3653,0
2110401,São Benedito do Rio Preto,MA,Nordeste,-3.33515,-43.5287,0
2110500,São Bento,MA,Nordeste,-2.69781,-44.8289,0
2110609,São Bernardo,MA,Nordeste,-3.37223,-42.4191,0
2110658,São Domingos do Azeitão,MA,Nordeste,-6.81471,-44.6509,0
2110708,São Domingos do Maranhão,MA,Nordeste,-5.58095,-44.3822,0
2110807,São Félix de Balsas,MA,Nordeste,-7.07535,-44.8092,0
2110856,São Francisco do Brejão,MA,Nordeste,-5.12584,-47.389,0
2110906,São Francisco do Maranhão,MA,Nordeste,-6.25159,-42.8668,0
2111003,São João Batista,MA,Nordeste,-2.95398,-44.7953,0
2111029,São João do Carú,MA,Nordeste,-3.5503,-46.2507,0
2111052,São João do Paraíso,MA,Nordeste,-6.45634,-47.0594,0
2111078,São João do Soter,MA,Nordeste,-5.10821,-43.8163,0
2111102,São João dos Patos,MA,Nordeste,-6.4934,-43.7036,0
2111201,São José de Ribamar,MA,Nordeste,-2.54704,-44.0597,0
2111250,São José dos Basílios,MA,Nordeste,-5.05493,-44.5809,0
2111300,São Luís,MA,Nordeste,-2.53874,-44.2825,1
2111409,São Luís Gonzaga do Maranhão,MA,Nordeste,-4.38541,-44.6654,0
2111508,São Mateus do Maranhão,MA,Nordeste,-4.03736,-44.4707,0
2111532,São Pedro da Água Branca,MA,Nordeste,-5.08472,-48.4291,0
2111573,São Pedro dos Crentes,MA,Nordeste,-6.82389,-46.5319,0
2111607,São Raimundo das Mangabeiras,MA,Nordeste,-7.02183,-45.4809,0
2111631,São Raimundo do Doca Bezerra,MA,Nordeste,-5.11053,-45.0696,0
2111672,São Roberto,MA,Nordeste,-5.0231,-45.001,0
2111706,São Vicente Ferrer,MA,Nordeste,-2.89487,-44.8681,0
2111722,Satubinha,MA,Nordeste,-4.04913,-45.2457,0
2111748,Senador Alexandre Costa,MA,Nordeste,-5.25096,-44.0533,0
2111763,Senador La Rocque,MA,Nordeste,-5.4461,-47.2959,0
2111789,Serrano do Maranhão,MA,Nordeste,-1.85229,-45.1207,0
2111805,Sítio Novo,MA,Nordeste,-5.87601,-46.7033,0
2111904,Sucupira do Norte,MA,Nordeste,-6.47839,-44.1919,0
2111953,Sucupira do Riachão,MA,Nordeste,-6.40858,-43.5455,0
2112001,Tasso Fragoso,MA,Nordeste,-8.4662,-45.7536,0
2112100,Timbiras,MA,Nordeste,-4.25597,-43.932,0
2112209,Timon,MA,Nordeste,-5.09769,-42.8329,0
2112233,Trizidela do Vale,MA,Nordeste,-4.538,-44.628,0
2112274,Tufilândia,MA,Nordeste,-3.67355,-45.6238,0
2112308,Tuntum,MA,Nordeste,-5.25476,-44.6444,0
2112407,Turiaçu,MA,Nordeste,-1.65893,-45.3798,0
2112456,Turilândia,MA,Nordeste,-2.21638,-45.3044,0
2112506,Tutóia,MA,Nordeste,-2.76141,-42.2755,0
2112605,Urbano Santos,MA,Nordeste,-3.20642,-43.3878,0
2112704,Vargem Grande,MA,Nordeste,-3.53639,-43.917,0
2112803,Viana,MA,Nordeste,-3.20451,-44.9912,0
2112852,Vila Nova dos Martírios,MA,Nordeste,-5.18889,-48.1336,0
2112902,Vitória do Mearim,MA,Nordeste,-3.45125,-44.8643,0
2113009,Vitorino Freire,MA,Nordeste,-4.28184,-45.2505,0
2114007,Zé Doca,MA,Nordeste,-3.27014,-45.6553,0
2200053,Acauã,PI,Nordeste,-8.21954,-41.0831,0
2200103,Agricolândia,PI,Nordeste,-5.79676,-42.6664,0
2200202,Água Branca,PI,Nordeste,-5.88856,-42.637,0
2200251,Alagoinha do Piauí,PI,Nordeste,-7.00039,-40.9282,0
2200277,Alegrete do Piauí,PI,Nordeste,-7.24196,-40.8566,0
2200301,Alto Longá,PI,Nordeste,-5.25634,-42.2096,0
2200400,Altos,PI,Nordeste,-5.03888,-42.4612,0
2200459,Alvorada do Gurguéia,PI,Nordeste,-8.42418,-43.777,0
2200509,Amarante,PI,Nordeste,-6.24304,-42.8433,0
2200608,Angical do Piauí,PI,Nordeste,-6.08786,-42.74,0
2200707,Anísio de Abreu,PI,Nordeste,-9.18564,-43.0494,0
2200806,Antônio Almeida,PI,Nordeste,-7.21276,-44.1889,0
2200905,Aroazes,PI,Nordeste,-6.11022,-41.7822,0
2200954,Aroeiras do Itaim,PI,Nordeste,-7.24502,-41.5325,0
2201002,Arraial,PI,Nordeste,-6.65075,-42.5418,0
2201051,Assunção do Piauí,PI,Nordeste,-5.865,-41.0389,0
2201101,Avelino Lopes,PI,Nordeste,-10.1345,-43.9563,0
2201150,Baixa Grande do Ribeiro,PI,Nordeste,-7.84903,-45.219,0
2201176,Barra D'Alcântara,PI,Nordeste,-6.51645,-42.1146,0
2201200,Barras,PI,Nordeste,-4.24468,-42.2922,0
2201309,Barreiras do Piauí,PI,Nordeste,-9.9296,-45.4702,0
2201408,Barro Duro,PI,Nordeste,-5.81673,-42.5147,0
2201507,Batalha,PI,Nordeste,-4.0223,-42.0787,0
2201556,Bela Vista do Piauí,PI,Nordeste,-7.98809,-41.8675,0
2201572,Belém do Piauí,PI,Nordeste,-7.36652,-40.9688,0
2201606,Beneditinos,PI,Nordeste,-5.45676,-42.3638,0
2201705,Bertolínia,PI,Nordeste,-7.63338,-43.9498,0
2201739,Betânia do Piauí,PI,Nordeste,-8.14376,-40.7989,0
2201770,Boa Hora,PI,Nordeste,-4.41404,-42.1357,0
2201804,Bocaina,PI,Nordeste,-6.94124,-41.3168,0
2201903,Bom Jesus,PI,Nordeste,-9.07124,-44.359,0
2201919,Bom Princípio do Piauí,PI,Nordeste,-3.19631,-41.6403,0
2201929,Bonfim do Piauí,PI,Nordeste,-9.1605,-42.8865,0
2201945,Boqueirão do Piauí,PI,Nordeste,-4.48181,-42.1212,0
2201960,Brasileira,PI,Nordeste,-4.1337,-41.7859,0
2201988,Brejo do Piauí,PI,Nordeste,-8.20314,-42.8229,0
2202000,Buriti dos Lopes,PI,Nordeste,-3.18259,-41.8695,0
2202026,Buriti dos Montes,PI,Nordeste,-5.30584,-41.0933,0
2202059,Cabeceiras do Piauí,PI,Nordeste,-4.4773,-42.3069,0
2202075,Cajazeiras do Piauí,PI,Nordeste,-6.79667,-42.3903,0
2202083,Cajueiro da Praia,PI,Nordeste,-2.93111,-41.3408,0
2202091,Caldeirão Grande do Piauí,PI,Nordeste,-7.3314,-40.6366,0
2202109,Campinas do Piauí,PI,Nordeste,-7.6593,-41.8775,0
2202117,Campo Alegre do Fidalgo,PI,Nordeste,-8.38236,-41.8344,0
2202133,Campo Grande do Piauí,PI,Nordeste,-7.12827,-41.0315,0
2202174,Campo Largo do Piauí,PI,Nordeste,-3.80441,-42.64,0
2202208,Campo Maior,PI,Nordeste,-4.8217,-42.1641,0
2202251,Canavieira,PI,Nordeste,-7.68821,-43.7233,0
2202307,Canto do Buriti,PI,Nordeste,-8.1111,-42.9517,0
2202406,Capitão de Campos,PI,Nordeste,-4.457,-41.944,0
2202455,Capitão Gervásio Oliveira,PI,Nordeste,-8.49655,-41.814,0
2202505,Caracol,PI,Nordeste,-9.27933,-43.329,0
2202539,Caraúbas do Piauí,PI,Nordeste,-3.47525,-41.8425,0
2202554,Caridade do Piauí,PI,Nordeste,-7.73435,-40.9848,0
2202604,Castelo do Piauí,PI,Nordeste,-5.31869,-41.5499,0
2202653,Caxingó,PI,Nordeste,-3.41904,-41.8955,0
2202703,Cocal,PI,Nordeste,-3.47279,-41.5546,0
2202711,Cocal de Telha,PI,Nordeste,-4.5571,-41.9587,0
2202729,Cocal dos Alves,PI,Nordeste,-3.62047,-41.4402,0
2202737,Coivaras,PI,Nordeste,-5.09224,-42.208,0
2202752,Colônia do Gurguéia,PI,Nordeste,-8.1837,-43.794,0
2202778,Colônia do Piauí,PI,Nordeste,-7.22651,-42.1756,0
2202802,Conceição do Canindé,PI,Nordeste,-7.87638,-41.5942,0
2202851,Coronel José Dias,PI,Nordeste,-8.81397,-42.5232,0
2202901,Corrente,PI,Nordeste,-10.4333,-45.1633,0
2203008,Cristalândia do Piauí,PI,Nordeste,-10.6443,-45.1893,0
2203107,Cristino Castro,PI,Nordeste,-8.82273,-44.223,0
2203206,Curimatá,PI,Nordeste,-10.0326,-44.3002,0
2203230,Currais,PI,Nordeste,-9.01175,-44.4062,0
2203255,Curralinhos,PI,Nordeste,-5.60825,-42.8376,0
2203271,Curral Novo do Piauí,PI,Nordeste,-7.8313,-40.8957,0
2203305,Demerval Lobão,PI,Nordeste,-5.35875,-42.6776,0
2203354,Dirceu Arcoverde,PI,Nordeste,-9.33939,-42.4348,0
2203404,Dom Expedito Lopes,PI,Nordeste,-6.95332,-41.6396,0
2203420,Domingos Mourão,PI,Nordeste,-4.2495,-41.2683,0
2203453,Dom Inocêncio,PI,Nordeste,-9.00516,-41.9697,0
2203503,Elesbão Veloso,PI,Nordeste,-6.19947,-42.1355,0
2203602,Eliseu Martins,PI,Nordeste,-8.09629,-43.6705,0
2203701,Esperantina,PI,Nordeste,-3.88863,-42.2324,0
2203750,Fartura do Piauí,PI,Nordeste,-9.48342,-42.7912,0
2203800,Flores do Piauí,PI,Nordeste,-7.78793,-42.918,0
2203859,Floresta do Piauí,PI,Nordeste,-7.46682,-41.7883,0
2203909,Floriano,PI,Nordeste,-6.77182,-43.0241,0
2204006,Francinópolis,PI,Nordeste,-6.39334,-42.2591,0
2204105,Francisco Ayres,PI,Nordeste,-6.62606,-42.6881,0
2204154,Francisco Macedo,PI,Nordeste,-7.331,-40.788,0
2204204,Francisco Santos,PI,Nordeste,-6.99491,-41.1288,0
2204303,Fronteiras,PI,Nordeste,-7.08173,-40.6146,0
2204352,Geminiano,PI,Nordeste,-7.15476,-41.3409,0
2204402,Gilbués,PI,Nordeste,-9.83001,-45.3423,0
2204501,Guadalupe,PI,Nordeste,-6.78285,-43.5594,0
2204550,Guaribas,PI,Nordeste,-9.38647,-43.6943,0
2204600,Hugo Napoleão,PI,Nordeste,-5.9886,-42.5598,0
2204659,Ilha Grande,PI,Nordeste,-2.85774,-41.8186,0
2204709,Inhuma,PI,Nordeste,-6.665,-41.7041,0
2204808,Ipiranga do Piauí,PI,Nordeste,-6.82421,-41.7381,0
2204907,Isaías Coelho,PI,Nordeste,-7.73597,-41.6735,0
2205003,Itainópolis,PI,Nordeste,-7.44336,-41.4687,0
2205102,Itaueira,PI,Nordeste,-7.59989,-43.0249,0
2205151,Jacobina do Piauí,PI,Nordeste,-7.93063,-41.2075,0
2205201,Jaicós,PI,Nordeste,-7.36229,-41.1371,0
2205250,Jardim do Mulato,PI,Nordeste,-6.099,-42.63,0
2205276,Jatobá do Piauí,PI,Nordeste,-4.77025,-41.817,0
2205300,Jerumenha,PI,Nordeste,-7.09128,-43.5033,0
2205359,João Costa,PI,Nordeste,-8.50736,-42.4264,0
2205409,Joaquim Pires,PI,Nordeste,-3.50164,-42.1865,0
2205458,Joca Marques,PI,Nordeste,-3.4804,-42.4255,0
2205508,José de Freitas,PI,Nordeste,-4.75146,-42.5746,0
2205516,Juazeiro do Piauí,PI,Nordeste,-5.17459,-41.6976,0
2205524,Júlio Borges,PI,Nordeste,-10.3225,-44.2381,0
2205532,Jurema,PI,Nordeste,-9.21992,-43.1337,0
2205540,Lagoinha do Piauí,PI,Nordeste,-5.83074,-42.6223,0
2205557,Lagoa Alegre,PI,Nordeste,-4.51539,-42.6309,0
2205565,Lagoa do Barro do Piauí,PI,Nordeste,-8.47673,-41.5342,0
2205573,Lagoa de São Francisco,PI,Nordeste,-4.38505,-41.5969,0
2205581,Lagoa do Piauí,PI,Nordeste,-5.41864,-42.6437,0
2205599,Lagoa do Sítio,PI,Nordeste,-6.50766,-41.5653,0
2205607,Landri Sales,PI,Nordeste,-7.25922,-43.9364,0
2205706,Luís Correia,PI,Nordeste,-2.88438,-41.6641,0
2205805,Luzilândia,PI,Nordeste,-3.4683,-42.3718,0
2205854,Madeiro,PI,Nordeste,-3.48624,-42.4981,0
2205904,Manoel Emídio,PI,Nordeste,-8.01234,-43.8755,0
2205953,Marcolândia,PI,Nordeste,-7.44169,-40.6602,0
2206001,Marcos Parente,PI,Nordeste,-7.11565,-43.8926,0
2206050,Massapê do Piauí,PI,Nordeste,-7.47469,-41.1103,0
2206100,Matias Olímpio,PI,Nordeste,-3.71492,-42.5507,0
2206209,Miguel Alves,PI,Nordeste,-4.16857,-42.8963,0
2206308,Miguel Leão,PI,Nordeste,-5.68077,-42.7436,0
2206357,Milton Brandão,PI,Nordeste,-4.68295,-41.4173,0
2206407,Monsenhor Gil,PI,Nordeste,-5.562,-42.6075,0
2206506,Monsenhor Hipólito,PI,Nordeste,-6.99275,-41.026,0
2206605,Monte Alegre do Piauí,PI,Nordeste,-9.75364,-45.3037,0
2206654,Morro Cabeça no Tempo,PI,Nordeste,-9.71891,-43.9072,0
2206670,Morro do Chapéu do Piauí,PI,Nordeste,-3.73337,-42.3024,0
2206696,Murici dos Portelas,PI,Nordeste,-3.319,-42.094,0
2206704,Nazaré do Piauí,PI,Nordeste,-6.97023,-42.6773,0
2206720,Nazária,PI,Nordeste,-5.35128,-42.8153,0
2206753,Nossa Senhora de Nazaré,PI,Nordeste,-4.63019,-42.173,0
2206803,Nossa Senhora dos Remédios,PI,Nordeste,-3.97574,-42.6184,0
2206902,Novo Oriente do Piauí,PI,Nordeste,-6.44901,-41.9261,0
2206951,Novo Santo Antônio,PI,Nordeste,-5.28749,-41.9325,0
2207009,Oeiras,PI,Nordeste,-7.01915,-42.1283,0
2207108,Olho D'Água do Piauí,PI,Nordeste,-5.84125,-42.5594,0
2207207,Padre Marcos,PI,Nordeste,-7.35101,-40.8997,0
2207306,Paes Landim,PI,Nordeste,-7.77375,-42.2474,0
2207355,Pajeú do Piauí,PI,Nordeste,-7.85508,-42.8248,0
2207405,Palmeira do Piauí,PI,Nordeste,-8.73076,-44.2466,0
2207504,Palmeirais,PI,Nordeste,-5.97086,-43.056,0
2207553,Paquetá,PI,Nordeste,-7.10303,-41.7,0
2207603,Parnaguá,PI,Nordeste,-10.2166,-44.63,0
2207702,Parnaíba,PI,Nordeste,-2.90585,-41.7754,0
2207751,Passagem Franca do Piauí,PI,Nordeste,-5.86036,-42.4436,0
2207777,Patos do Piauí,PI,Nordeste,-7.67231,-41.2408,0
2207793,Pau D'Arco do Piauí,PI,Nordeste,-5.26072,-42.3908,0
2207801,Paulistana,PI,Nordeste,-8.13436,-41.1431,0
2207850,Pavussu,PI,Nordeste,-7.96059,-43.2284,0
2207900,Pedro II,PI,Nordeste,-4.42585,-41.4482,0
2207934,Pedro Laurentino,PI,Nordeste,-8.06807,-42.2847,0
2207959,Nova Santa Rita,PI,Nordeste,-8.09707,-42.0471,0
2208007,Picos,PI,Nordeste,-7.07721,-41.467,0
2208106,Pimenteiras,PI,Nordeste,-6.23839,-41.4113,0
2208205,Pio IX,PI,Nordeste,-6.83002,-40.6083,0
2208304,Piracuruca,PI,Nordeste,-3.93335,-41.7088,0
2208403,Piripiri,PI,Nordeste,-4.27157,-41.7716,0
2208502,Porto,PI,Nordeste,-3.88815,-42.6998,0
2208551,Porto Alegre do Piauí,PI,Nordeste,-6.96423,-44.1837,0
2208601,Prata do Piauí,PI,Nordeste,-5.67265,-42.2046,0
2208650,Queimada Nova,PI,Nordeste,-8.57064,-41.4106,0
2208700,Redenção do Gurguéia,PI,Nordeste,-9.47937,-44.5811,0
2208809,Regeneração,PI,Nordeste,-6.23115,-42.6842,0
2208858,Riacho Frio,PI,Nordeste,-10.1244,-44.9503,0
2208874,Ribeira do Piauí,PI,Nordeste,-7.69028,-42.7128,0
2208908,Ribeiro Gonçalves,PI,Nordeste,-7.55651,-45.2447,0
2209005,Rio Grande do Piauí,PI,Nordeste,-7.78029,-43.1369,0
2209104,Santa Cruz do Piauí,PI,Nordeste,-7.1785,-41.7609,0
2209153,Santa Cruz dos Milagres,PI,Nordeste,-5.80581,-41.9506,0
2209203,Santa Filomena,PI,Nordeste,-9.11228,-45.9116,0
2209302,Santa Luz,PI,Nordeste,-8.9488,-44.1296,0
2209351,Santana do Piauí,PI,Nordeste,-6.94696,-41.5178,0
2209377,Santa Rosa do Piauí,PI,Nordeste,-6.79581,-42.2814,0
2209401,Santo Antônio de Lisboa,PI,Nordeste,-6.98676,-41.2252,0
2209450,Santo Antônio dos Milagres,PI,Nordeste,-6.04647,-42.7123,0
2209500,Santo Inácio do Piauí,PI,Nordeste,-7.42072,-41.9063,0
2209559,São Braz do Piauí,PI,Nordeste,-9.05797,-43.0076,0
2209609,São Félix do Piauí,PI,Nordeste,-5.93485,-42.1172,0
2209658,São Francisco de Assis do Piauí,PI,Nordeste,-8.23599,-41.6873,0
2209708,São Francisco do Piauí,PI,Nordeste,-7.2463,-42.541,0
2209757,São Gonçalo do Gurguéia,PI,Nordeste,-10.0319,-45.3092,0
2209807,São Gonçalo do Piauí,PI,Nordeste,-5.99393,-42.7095,0
2209856,São João da Canabrava,PI,Nordeste,-6.81203,-41.3415,0
2209872,São João da Fronteira,PI,Nordeste,-3.95497,-41.2569,0
2209906,São João da Serra,PI,Nordeste,-5.51081,-41.8923,0
2209955,São João da Varjota,PI,Nordeste,-6.94082,-41.8889,0
2209971,São João do Arraial,PI,Nordeste,-3.8186,-42.4459,0
2210003,São João do Piauí,PI,Nordeste,-8.35466,-42.2559,0
2210052,São José do Divino,PI,Nordeste,-3.81411,-41.8308,0
2210102,São José do Peixe,PI,Nordeste,-7.48554,-42.5672,0
2210201,São José do Piauí,PI,Nordeste,-6.87194,-41.4731,0
2210300,São Julião,PI,Nordeste,-7.08391,-40.8246,0
2210359,São Lourenço do Piauí,PI,Nordeste,-9.16463,-42.5496,0
2210375,São Luis do Piauí,PI,Nordeste,-6.81936,-41.3175,0
2210383,São Miguel da Baixa Grande,PI,Nordeste,-5.85646,-42.1934,0
2210391,São Miguel do Fidalgo,PI,Nordeste,-7.59713,-42.3676,0
2210409,São Miguel do Tapuio,PI,Nordeste,-5.49729,-41.3165,0
2210508,São Pedro do Piauí,PI,Nordeste,-5.92078,-42.7192,0
2210607,São Raimundo Nonato,PI,Nordeste,-9.01241,-42.6987,0
2210623,Sebastião Barros,PI,Nordeste,-10.817,-44.8337,0
2210631,Sebastião Leal,PI,Nordeste,-7.56803,-44.06,0
2210656,Sigefredo Pacheco,PI,Nordeste,-4.91665,-41.7311,0
2210706,Simões,PI,Nordeste,-7.59109,-40.8137,0
2210805,Simplício Mendes,PI,Nordeste,-7.85294,-41.9075,0
2210904,Socorro do Piauí,PI,Nordeste,-7.86773,-42.4922,0
2210938,Sussuapara,PI,Nordeste,-7.03687,-41.3767,0
2210953,Tamboril do Piauí,PI,Nordeste,-8.40937,-42.9211,0
2210979,Tanque do Piauí,PI,Nordeste,-6.59787,-42.2795,0
2211001,Teresina,PI,Nordeste,-5.09194,-42.8034,1
2211100,União,PI,Nordeste,-4.58571,-42.8583,0
2211209,Uruçuí,PI,Nordeste,-7.23944,-44.5577,0
2211308,Valença do Piauí,PI,Nordeste,-6.40301,-41.7375,0
2211357,Várzea Branca,PI,Nordeste,-9.238,-42.9692,0
2211407,Várzea Grande,PI,Nordeste,-6.54899,-42.248,0
2211506,Vera Mendes,PI,Nordeste,-7.59748,-41.4673,0
2211605,Vila Nova do Piauí,PI,Nordeste,-7.13272,-40.9345,0
2211704,Wall Ferraz,PI,Nordeste,-7.23151,-41.905,0
2300101,Abaiara,CE,Nordeste,-7.34588,-39.0416,0
2300150,Acarape,CE,Nordeste,-4.22083,-38.7055,0
2300200,Acaraú,CE,Nordeste,-2.88769,-40.1183,0
2300309,Acopiara,CE,Nordeste,-6.08911,-39.448,0
2300408,Aiuaba,CE,Nordeste,-6.57122,-40.1178,0
2300507,Alcântaras,CE,Nordeste,-3.58537,-40.5479,0
2300606,Altaneira,CE,Nordeste,-6.99837,-39.7356,0
2300705,Alto Santo,CE,Nordeste,-5.50894,-38.2743,0
2300754,Amontada,CE,Nordeste,-3.36017,-39.8288,0
2300804,Antonina do Norte,CE,Nordeste,-6.76919,-39.987,0
2300903,Apuiarés,CE,Nordeste,-3.94506,-39.4359,0
2301000,Aquiraz,CE,Nordeste,-3.89929,-38.3896,0
2301109,Aracati,CE,Nordeste,-4.55826,-37.7679,0
2301208,Aracoiaba,CE,Nordeste,-4.36872,-38.8125,0
2301257,Ararendá,CE,Nordeste,-4.74567,-40.831,0
2301307,Araripe,CE,Nordeste,-7.21319,-40.1359,0
2301406,Aratuba,CE,Nordeste,-4.41229,-39.0471,0
2301505,Arneiroz,CE,Nordeste,-6.3165,-40.1653,0
2301604,Assaré,CE,Nordeste,-6.8669,-39.8689,0
2301703,Aurora,CE,Nordeste,-6.93349,-38.9742,0
2301802,Baixio,CE,Nordeste,-6.71945,-38.7134,0
2301851,Banabuiú,CE,Nordeste,-5.30454,-38.9132,0
2301901,Barbalha,CE,Nordeste,-7.2982,-39.3021,0
2301950,Barreira,CE,Nordeste,-4.28921,-38.6429,0
2302008,Barro,CE,Nordeste,-7.17188,-38.7741,0
2302057,Barroquinha,CE,Nordeste,-3.02051,-41.1358,0
2302107,Baturité,CE,Nordeste,-4.32598,-38.8812,0
2302206,Beberibe,CE,Nordeste,-4.17741,-38.1271,0
2302305,Bela Cruz,CE,Nordeste,-3.04996,-40.1671,0
2302404,Boa Viagem,CE,Nordeste,-5.11258,-39.7337,0
2302503,Brejo Santo,CE,Nordeste,-7.48469,-38.9799,0
2302602,Camocim,CE,Nordeste,-2.9005,-40.8544,0
2302701,Campos Sales,CE,Nordeste,-7.06761,-40.3687,0
2302800,Canindé,CE,Nordeste,-4.35162,-39.3155,0
2302909,Capistrano,CE,Nordeste,-4.45569,-38.9048,0
2303006,Caridade,CE,Nordeste,-4.22514,-39.1912,0
2303105,Cariré,CE,Nordeste,-3.94858,-40.476,0
2303204,Caririaçu,CE,Nordeste,-7.02808,-39.2828,0
2303303,Cariús,CE,Nordeste,-6.52428,-39.4916,0
2303402,Carnaubal,CE,Nordeste,-4.15985,-40.9413,0
2303501,Cascavel,CE,Nordeste,-4.12967,-38.2412,0
2303600,Catarina,CE,Nordeste,-6.12291,-39.8736,0
2303659,Catunda,CE,Nordeste,-4.64336,-40.2,0
2303709,Caucaia,CE,Nordeste,-3.72797,-38.6619,0
2303808,Cedro,CE,Nordeste,-6.60034,-39.0609,0
2303907,Chaval,CE,Nordeste,-3.03571,-41.2435,0
2303931,Choró,CE,Nordeste,-4.83906,-39.1344,0
2303956,Chorozinho,CE,Nordeste,-4.28873,-38.4986,0
2304004,Coreaú,CE,Nordeste,-3.5415,-40.6587,0
2304103,Crateús,CE,Nordeste,-5.16768,-40.6536,0
2304202,Crato,CE,Nordeste,-7.2153,-39.4103,0
2304236,Croatá,CE,Nordeste,-4.40481,-40.9022,0
2304251,Cruz,CE,Nordeste,-2.91813,-40.176,0
2304269,Deputado Irapuan Pinheiro,CE,Nordeste,-5.91485,-39.257,0
2304277,Ereré,CE,Nordeste,-6.02751,-38.3461,0
2304285,Eusébio,CE,Nordeste,-3.8925,-38.4559,0
2304301,Farias Brito,CE,Nordeste,-6.92146,-39.5651,0
2304350,Forquilha,CE,Nordeste,-3.79945,-40.2634,0
2304400,Fortaleza,CE,Nordeste,-3.71664,-38.5423,1
2304459,Fortim,CE,Nordeste,-4.45126,-37.7981,0
2304509,Frecheirinha,CE,Nordeste,-3.75557,-40.818,0
2304608,General Sampaio,CE,Nordeste,-4.04351,-39.454,0
2304657,Graça,CE,Nordeste,-4.04422,-40.749,0
2304707,Granja,CE,Nordeste,-3.12788,-40.8372,0
2304806,Granjeiro,CE,Nordeste,-6.88134,-39.2144,0
2304905,Groaíras,CE,Nordeste,-3.91787,-40.3852,0
2304954,Guaiúba,CE,Nordeste,-4.04057,-38.6404,0
2305001,Guaraciaba do Norte,CE,Nordeste,-4.15814,-40.7476,0
2305100,Guaramiranga,CE,Nordeste,-4.26248,-38.932,0
2305209,Hidrolândia,CE,Nordeste,-4.40958,-40.4056,0
2305233,Horizonte,CE,Nordeste,-4.1209,-38.4707,0
2305266,Ibaretama,CE,Nordeste,-4.80376,-38.7501,0
2305308,Ibiapina,CE,Nordeste,-3.92403,-40.8911,0
2305332,Ibicuitinga,CE,Nordeste,-4.96999,-38.6362,0
2305357,Icapuí,CE,Nordeste,-4.71206,-37.3531,0
2305407,Icó,CE,Nordeste,-6.39627,-38.8554,0
2305506,Iguatu,CE,Nordeste,-6.36281,-39.2892,0
2305605,Independência,CE,Nordeste,-5.38789,-40.3085,0
2305654,Ipaporanga,CE,Nordeste,-4.89764,-40.7537,0
2305704,Ipaumirim,CE,Nordeste,-6.78265,-38.7179,0
2305803,Ipu,CE,Nordeste,-4.31748,-40.7059,0
2305902,Ipueiras,CE,Nordeste,-4.53802,-40.7118,0
2306009,Iracema,CE,Nordeste,-5.8124,-38.2919,0
2306108,Irauçuba,CE,Nordeste,-3.74737,-39.7843,0
2306207,Itaiçaba,CE,Nordeste,-4.67146,-37.833,0
2306256,Itaitinga,CE,Nordeste,-3.96577,-38.5298,0
2306306,Itapajé,CE,Nordeste,-3.68314,-39.5855,0
2306405,Itapipoca,CE,Nordeste,-3.49933,-39.5836,0
2306504,Itapiúna,CE,Nordeste,-4.55516,-38.9281,0
2306553,Itarema,CE,Nordeste,-2.9248,-39.9167,0
2306603,Itatira,CE,Nordeste,-4.52608,-39.6202,0
2306702,Jaguaretama,CE,Nordeste,-5.6051,-38.7639,0
2306801,Jaguaribara,CE,Nordeste,-5.67765,-38.5359,0
2306900,Jaguaribe,CE,Nordeste,-5.90213,-38.6227,0
2307007,Jaguaruana,CE,Nordeste,-4.83151,-37.781,0
2307106,Jardim,CE,Nordeste,-7.57599,-39.2826,0
2307205,Jati,CE,Nordeste,-7.6797,-39.0029,0
2307254,Jijoca de Jericoacoara,CE,Nordeste,-2.79331,-40.5127,0
2307304,Juazeiro do Norte,CE,Nordeste,-7.19621,-39.3076,0
2307403,Jucás,CE,Nordeste,-6.51523,-39.5187,0
2307502,Lavras da Mangabeira,CE,Nordeste,-6.7448,-38.9706,0
2307601,Limoeiro do Norte,CE,Nordeste,-5.14392,-38.0847,0
2307635,Madalena,CE,Nordeste,-4.84601,-39.5725,0
2307650,Maracanaú,CE,Nordeste,-3.86699,-38.6259,0
2307700,Maranguape,CE,Nordeste,-3.89143,-38.6829,0
2307809,Marco,CE,Nordeste,-3.1285,-40.1582,0
2307908,Martinópole,CE,Nordeste,-3.2252,-40.6896,0
2308005,Massapê,CE,Nordeste,-3.52364,-40.3423,0
2308104,Mauriti,CE,Nordeste,-7.38597,-38.7708,0
2308203,Meruoca,CE,Nordeste,-3.53974,-40.4531,0
2308302,Milagres,CE,Nordeste,-7.29749,-38.9378,0
2308351,Milhã,CE,Nordeste,-5.67252,-39.1875,0
2308377,Miraíma,CE,Nordeste,-3.56867,-39.9663,0
2308401,Missão Velha,CE,Nordeste,-7.23522,-39.143,0
2308500,Mombaça,CE,Nordeste,-5.73844,-39.63,0
2308609,Monsenhor Tabosa,CE,Nordeste,-4.79102,-40.0646,0
2308708,Morada Nova,CE,Nordeste,-5.09736,-38.3702,0
2308807,Moraújo,CE,Nordeste,-3.46311,-40.6776,0
2308906,Morrinhos,CE,Nordeste,-3.23426,-40.1233,0
2309003,Mucambo,CE,Nordeste,-3.90271,-40.7452,0
2309102,Mulungu,CE,Nordeste,-4.30294,-38.9951,0
2309201,Nova Olinda,CE,Nordeste,-7.08415,-39.6713,0
2309300,Nova Russas,CE,Nordeste,-4.70581,-40.5621,0
2309409,Novo Oriente,CE,Nordeste,-5.52552,-40.7713,0
2309458,Ocara,CE,Nordeste,-4.48523,-38.5933,0
2309508,Orós,CE,Nordeste,-6.25182,-38.9053,0
2309607,Pacajus,CE,Nordeste,-4.17107,-38.465,0
2309706,Pacatuba,CE,Nordeste,-3.9784,-38.6183,0
2309805,Pacoti,CE,Nordeste,-4.22492,-38.922,0
2309904,Pacujá,CE,Nordeste,-3.98327,-40.6989,0
2310001,Palhano,CE,Nordeste,-4.73672,-37.9655,0
2310100,Palmácia,CE,Nordeste,-4.13831,-38.8446,0
2310209,Paracuru,CE,Nordeste,-3.41436,-39.03,0
2310258,Paraipaba,CE,Nordeste,-3.43799,-39.1479,0
2310308,Parambu,CE,Nordeste,-6.20768,-40.6905,0
2310407,Paramoti,CE,Nordeste,-4.08815,-39.2417,0
2310506,Pedra Branca,CE,Nordeste,-5.45341,-39.7078,0
2310605,Penaforte,CE,Nordeste,-7.82163,-39.0707,0
2310704,Pentecoste,CE,Nordeste,-3.79274,-39.2692,0
2310803,Pereiro,CE,Nordeste,-6.03576,-38.4624,0
2310852,Pindoretama,CE,Nordeste,-4.01584,-38.3061,0
2310902,Piquet Carneiro,CE,Nordeste,-5.80025,-39.417,0
2310951,Pires Ferreira,CE,Nordeste,-4.23922,-40.6442,0
2311009,Poranga,CE,Nordeste,-4.74672,-40.9205,0
2311108,Porteiras,CE,Nordeste,-7.52265,-39.114,0
2311207,Potengi,CE,Nordeste,-7.09154,-40.0233,0
2311231,Potiretama,CE,Nordeste,-5.71287,-38.1578,0
2311264,Quiterianópolis,CE,Nordeste,-5.8425,-40.7002,0
2311306,Quixadá,CE,Nordeste,-4.9663,-39.0155,0
2311355,Quixelô,CE,Nordeste,-6.24637,-39.2011,0
2311405,Quixeramobim,CE,Nordeste,-5.19067,-39.2889,0
2311504,Quixeré,CE,Nordeste,-5.07148,-37.9802,0
2311603,Redenção,CE,Nordeste,-4.21587,-38.7277,0
2311702,Reriutaba,CE,Nordeste,-4.14191,-40.5759,0
2311801,Russas,CE,Nordeste,-4.92673,-37.9721,0
2311900,Saboeiro,CE,Nordeste,-6.5346,-39.9017,0
2311959,Salitre,CE,Nordeste,-7.28398,-40.45,0
2312007,Santana do Acaraú,CE,Nordeste,-3.46144,-40.2118,0
2312106,Santana do Cariri,CE,Nordeste,-7.17613,-39.7302,0
2312205,Santa Quitéria,CE,Nordeste,-4.32608,-40.1523,0
2312304,São Benedito,CE,Nordeste,-4.04713,-40.8596,0
2312403,São Gonçalo do Amarante,CE,Nordeste,-3.60515,-38.9726,0
2312502,São João do Jaguaribe,CE,Nordeste,-5.27516,-38.2694,0
2312601,São Luís do Curu,CE,Nordeste,-3.66976,-39.2391,0
2312700,Senador Pompeu,CE,Nordeste,-5.58244,-39.3704,0
2312809,Senador Sá,CE,Nordeste,-3.35305,-40.4662,0
2312908,Sobral,CE,Nordeste,-3.68913,-40.3482,0
2313005,Solonópole,CE,Nordeste,-5.71894,-39.0107,0
2313104,Tabuleiro do Norte,CE,Nordeste,-5.24353,-38.1282,0
2313203,Tamboril,CE,Nordeste,-4.83136,-40.3196,0
2313252,Tarrafas,CE,Nordeste,-6.67838,-39.753,0
2313302,Tauá,CE,Nordeste,-5.98585,-40.2968,0
2313351,Tejuçuoca,CE,Nordeste,-3.98831,-39.5799,0
2313401,Tianguá,CE,Nordeste,-3.72965,-40.9923,0
2313500,Trairi,CE,Nordeste,-3.26932,-39.2681,0
2313559,Tururu,CE,Nordeste,-3.58413,-39.4297,0
2313609,Ubajara,CE,Nordeste,-3.85448,-40.9204,0
2313708,Umari,CE,Nordeste,-6.63893,-38.7008,0
2313757,Umirim,CE,Nordeste,-3.67654,-39.3465,0
2313807,Uruburetama,CE,Nordeste,-3.62316,-39.5107,0
2313906,Uruoca,CE,Nordeste,-3.30819,-40.5628,0
2313955,Varjota,CE,Nordeste,-4.19387,-40.4741,0
2314003,Várzea Alegre,CE,Nordeste,-6.78264,-39.2942,0
2314102,Viçosa do Ceará,CE,Nordeste,-3.5667,-41.0916,0
2400109,Acari,RN,Nordeste,-6.4282,-36.6347,0
2400208,Assú,RN,Nordeste,-5.58362,-36.914,0
2400307,Afonso Bezerra,RN,Nordeste,-5.49229,-36.5075,0
2400406,Água Nova,RN,Nordeste,-6.20351,-38.2941,0
2400505,Alexandria,RN,Nordeste,-6.40533,-38.0142,0
2400604,Almino Afonso,RN,Nordeste,-6.1475,-37.7636,0
2400703,Alto do Rodrigues,RN,Nordeste,-5.28186,-36.75,0
2400802,Angicos,RN,Nordeste,-5.65792,-36.6094,0
2400901,Antônio Martins,RN,Nordeste,-6.21367,-37.8834,0
2401008,Apodi,RN,Nordeste,-5.65349,-37.7946,0
2401107,Areia Branca,RN,Nordeste,-4.95254,-37.1252,0
2401206,Arez,RN,Nordeste,-6.18831,-35.1608,0
2401305,Campo Grande,RN,Nordeste,-5.86206,-37.3135,0
2401404,Baía Formosa,RN,Nordeste,-6.37161,-35.0033,0
2401453,Baraúna,RN,Nordeste,-5.06977,-37.6129,0
2401503,Barcelona,RN,Nordeste,-5.94284,-35.9247,0
2401602,Bento Fernandes,RN,Nordeste,-5.69906,-35.813,0
2401651,Bodó,RN,Nordeste,-5.98027,-36.4167,0
2401701,Bom Jesus,RN,Nordeste,-5.98648,-35.5792,0
2401800,Brejinho,RN,Nordeste,-6.18566,-35.3591,0
2401859,Caiçara do Norte,RN,Nordeste,-5.07091,-36.0717,0
2401909,Caiçara do Rio do Vento,RN,Nordeste,-5.76541,-35.9938,0
2402006,Caicó,RN,Nordeste,-6.45441,-37.1067,0
2402105,Campo Redondo,RN,Nordeste,-6.23829,-36.1888,0
2402204,Canguaretama,RN,Nordeste,-6.37193,-35.1281,0
2402303,Caraúbas,RN,Nordeste,-5.78387,-37.5586,0
2402402,Carnaúba dos Dantas,RN,Nordeste,-6.55015,-36.5868,0
2402501,Carnaubais,RN,Nordeste,-5.34181,-36.8335,0
2402600,Ceará-Mirim,RN,Nordeste,-5.64323,-35.4247,0
2402709,Cerro Corá,RN,Nordeste,-6.03503,-36.3503,0
2402808,Coronel Ezequiel,RN,Nordeste,-6.3748,-36.2223,0
2402907,Coronel João Pessoa,RN,Nordeste,-6.24974,-38.4441,0
2403004,Cruzeta,RN,Nordeste,-6.40894,-36.7782,0
2403103,Currais Novos,RN,Nordeste,-6.25484,-36.5146,0
2403202,Doutor Severiano,RN,Nordeste,-6.08082,-38.3794,0
2403251,Parnamirim,RN,Nordeste,-5.91116,-35.271,0
2403301,Encanto,RN,Nordeste,-6.10691,-38.3033,0
2403400,Equador,RN,Nordeste,-6.93835,-36.717,0
2403509,Espírito Santo,RN,Nordeste,-6.33563,-35.3052,0
2403608,Extremoz,RN,Nordeste,-5.70143,-35.3048,0
2403707,Felipe Guerra,RN,Nordeste,-5.59274,-37.6875,0
2403756,Fernando Pedroza,RN,Nordeste,-5.69096,-36.5282,0
2403806,Florânia,RN,Nordeste,-6.12264,-36.8226,0
2403905,Francisco Dantas,RN,Nordeste,-6.07234,-38.1212,0
2404002,Frutuoso Gomes,RN,Nordeste,-6.15669,-37.8375,0
2404101,Galinhos,RN,Nordeste,-5.0909,-36.2754,0
2404200,Goianinha,RN,Nordeste,-6.26486,-35.1943,0
2404309,Governador Dix-Sept Rosado,RN,Nordeste,-5.44887,-37.5183,0
2404408,Grossos,RN,Nordeste,-4.98068,-37.1621,0
2404507,Guamaré,RN,Nordeste,-5.10619,-36.3222,0
2404606,Ielmo Marinho,RN,Nordeste,-5.82447,-35.55,0
2404705,Ipanguaçu,RN,Nordeste,-5.48984,-36.8501,0
2404804,Ipueira,RN,Nordeste,-6.80596,-37.2045,0
2404853,Itajá,RN,Nordeste,-5.63894,-36.8712,0
2404903,Itaú,RN,Nordeste,-5.8363,-37.9912,0
2405009,Jaçanã,RN,Nordeste,-6.41856,-36.2031,0
2405108,Jandaíra,RN,Nordeste,-5.35211,-36.1278,0
2405207,Janduís,RN,Nordeste,-6.01474,-37.4048,0
2405306,Januário Cicco,RN,Nordeste,-6.16566,-35.6219,0
2405405,Japi,RN,Nordeste,-6.46544,-35.9346,0
2405504,Jardim de Angicos,RN,Nordeste,-5.64999,-35.9713,0
2405603,Jardim de Piranhas,RN,Nordeste,-6.37665,-37.3496,0
2405702,Jardim do Seridó,RN,Nordeste,-6.58047,-36.7736,0
2405801,João Câmara,RN,Nordeste,-5.54094,-35.8122,0
2405900,João Dias,RN,Nordeste,-6.27215,-37.7885,0
2406007,José da Penha,RN,Nordeste,-6.31095,-38.2823,0
2406106,Jucurutu,RN,Nordeste,-6.0306,-37.009,0
2406155,Jundiá,RN,Nordeste,-6.26866,-35.3495,0
2406205,Lagoa d'Anta,RN,Nordeste,-6.39493,-35.5949,0
2406304,Lagoa de Pedras,RN,Nordeste,-6.15082,-35.4299,0
2406403,Lagoa de Velhos,RN,Nordeste,-6.0119,-35.8729,0
2406502,Lagoa Nova,RN,Nordeste,-6.09339,-36.4703,0
2406601,Lagoa Salgada,RN,Nordeste,-6.12295,-35.4724,0
2406700,Lajes,RN,Nordeste,-5.69322,-36.247,0
2406809,Lajes Pintadas,RN,Nordeste,-6.14943,-36.1171,0
2406908,Lucrécia,RN,Nordeste,-6.10525,-37.8134,0
2407005,Luís Gomes,RN,Nordeste,-6.40588,-38.3899,0
2407104,Macaíba,RN,Nordeste,-5.85229,-35.3552,0
2407203,Macau,RN,Nordeste,-5.10795,-36.6318,0
2407252,Major Sales,RN,Nordeste,-6.39949,-38.324,0
2407302,Marcelino Vieira,RN,Nordeste,-6.2846,-38.1642,0
2407401,Martins,RN,Nordeste,-6.08279,-37.908,0
2407500,Maxaranguape,RN,Nordeste,-5.52181,-35.2631,0
2407609,Messias Targino,RN,Nordeste,-6.07194,-37.5158,0
2407708,Montanhas,RN,Nordeste,-6.48522,-35.2842,0
2407807,Monte Alegre,RN,Nordeste,-6.07063,-35.3253,0
2407906,Monte das Gameleiras,RN,Nordeste,-6.43698,-35.7831,0
2408003,Mossoró,RN,Nordeste,-5.18374,-37.3474,0
2408102,Natal,RN,Nordeste,-5.79357,-35.1986,1
2408201,Nísia Floresta,RN,Nordeste,-6.09329,-35.1991,0
2408300,Nova Cruz,RN,Nordeste,-6.47511,-35.4286,0
2408409,Olho d'Água do Borges,RN,Nordeste,-5.9486,-37.7047,0
2408508,Ouro Branco,RN,Nordeste,-6.6958,-36.9428,0
2408607,Paraná,RN,Nordeste,-6.47565,-38.3057,0
2408706,Paraú,RN,Nordeste,-5.76893,-37.1032,0
2408805,Parazinho,RN,Nordeste,-5.22276,-35.8398,0
2408904,Parelhas,RN,Nordeste,-6.68491,-36.6566,0
2408953,Rio do Fogo,RN,Nordeste,-5.2765,-35.3794,0
2409100,Passa e Fica,RN,Nordeste,-6.43018,-35.6442,0
2409209,Passagem,RN,Nordeste,-6.27268,-35.37,0
2409308,Patu,RN,Nordeste,-6.10656,-37.6356,0
2409332,Santa Maria,RN,Nordeste,-5.83802,-35.6914,0
2409407,Pau dos Ferros,RN,Nordeste,-6.10498,-38.2077,0
2409506,Pedra Grande,RN,Nordeste,-5.14988,-35.876,0
2409605,Pedra Preta,RN,Nordeste,-5.57352,-36.1084,0
2409704,Pedro Avelino,RN,Nordeste,-5.5161,-36.3867,0
2409803,Pedro Velho,RN,Nordeste,-6.4356,-35.2195,0
2409902,Pendências,RN,Nordeste,-5.2564,-36.7095,0
2410009,Pilões,RN,Nordeste,-6.26364,-38.0461,0
2410108,Poço Branco,RN,Nordeste,-5.62233,-35.6635,0
2410207,Portalegre,RN,Nordeste,-6.02064,-37.9865,0
2410256,Porto do Mangue,RN,Nordeste,-5.05441,-36.7887,0
2410306,Serra Caiada,RN,Nordeste,-6.10478,-35.7113,0
2410405,Pureza,RN,Nordeste,-5.46393,-35.5554,0
2410504,Rafael Fernandes,RN,Nordeste,-6.18987,-38.2211,0
2410603,Rafael Godeiro,RN,Nordeste,-6.07244,-37.716,0
2410702,Riacho da Cruz,RN,Nordeste,-5.92654,-37.949,0
2410801,Riacho de Santana,RN,Nordeste,-6.25139,-38.3116,0
2410900,Riachuelo,RN,Nordeste,-5.82156,-35.8215,0
2411007,Rodolfo Fernandes,RN,Nordeste,-5.78393,-38.0579,0
2411056,Tibau,RN,Nordeste,-4.83729,-37.2554,0
2411106,Ruy Barbosa,RN,Nordeste,-5.88745,-35.933,0
2411205,Santa Cruz,RN,Nordeste,-6.22475,-36.0193,0
2411403,Santana do Matos,RN,Nordeste,-5.94605,-36.6578,0
2411429,Santana do Seridó,RN,Nordeste,-6.76643,-36.7312,0
2411502,Santo Antônio,RN,Nordeste,-6.31195,-35.4739,0
2411601,São Bento do Norte,RN,Nordeste,-5.09259,-35.9587,0
2411700,São Bento do Trairí,RN,Nordeste,-6.33798,-36.0863,0
2411809,São Fernando,RN,Nordeste,-6.37975,-37.1864,0
2411908,São Francisco do Oeste,RN,Nordeste,-5.97472,-38.1519,0
2412005,São Gonçalo do Amarante,RN,Nordeste,-5.79068,-35.3257,0
2412104,São João do Sabugi,RN,Nordeste,-6.71387,-37.2027,0
2412203,São José de Mipibu,RN,Nordeste,-6.0773,-35.2417,0
2412302,São José do Campestre,RN,Nordeste,-6.31087,-35.7067,0
2412401,São José do Seridó,RN,Nordeste,-6.44002,-36.8746,0
2412500,São Miguel,RN,Nordeste,-6.20283,-38.4947,0
2412559,São Miguel do Gostoso,RN,Nordeste,-5.12302,-35.6354,0
2412609,São Paulo do Potengi,RN,Nordeste,-5.8994,-35.7642,0
2412708,São Pedro,RN,Nordeste,-5.90559,-35.6317,0
2412807,São Rafael,RN,Nordeste,-5.79791,-36.8778,0
2412906,São Tomé,RN,Nordeste,-5.96404,-36.0798,0
2413003,São Vicente,RN,Nordeste,-6.21893,-36.6827,0
2413102,Senador Elói de Souza,RN,Nordeste,-6.03334,-35.6978,0
2413201,Senador Georgino Avelino,RN,Nordeste,-6.1576,-35.1299,0
2413300,Serra de São Bento,RN,Nordeste,-6.41762,-35.7033,0
2413359,Serra do Mel,RN,Nordeste,-5.17725,-37.0242,0
2413409,Serra Negra do Norte,RN,Nordeste,-6.66031,-37.3996,0
2413508,Serrinha,RN,Nordeste,-6.28181,-35.5,0
2413557,Serrinha dos Pintos,RN,Nordeste,-6.11087,-37.9548,0
2413607,Severiano Melo,RN,Nordeste,-5.77666,-37.957,0
2413706,Sítio Novo,RN,Nordeste,-6.11132,-35.909,0
2413805,Taboleiro Grande,RN,Nordeste,-5.91948,-38.0367,0
2413904,Taipu,RN,Nordeste,-5.63058,-35.5918,0
2414001,Tangará,RN,Nordeste,-6.19649,-35.7989,0
2414100,Tenente Ananias,RN,Nordeste,-6.45823,-38.182,0
2414159,Tenente Laurentino Cruz,RN,Nordeste,-6.1378,-36.7135,0
2414209,Tibau do Sul,RN,Nordeste,-6.19176,-35.0866,0
2414308,Timbaúba dos Batistas,RN,Nordeste,-6.45768,-37.2745,0
2414407,Touros,RN,Nordeste,-5.20182,-35.4621,0
2414456,Triunfo Potiguar,RN,Nordeste,-5.85408,-37.1786,0
2414506,Umarizal,RN,Nordeste,-5.98238,-37.818,0
2414605,Upanema,RN,Nordeste,-5.63761,-37.2635,0
2414704,Várzea,RN,Nordeste,-6.34641,-35.3732,0
2414753,Venha-Ver,RN,Nordeste,-6.32016,-38.4896,0
2414803,Vera Cruz,RN,Nordeste,-6.04399,-35.428,0
2414902,Viçosa,RN,Nordeste,-5.98253,-37.9462,0
2415008,Vila Flor,RN,Nordeste,-6.31287,-35.067,0
2500106,Água Branca,PB,Nordeste,-7.51144,-37.6357,0
2500205,Aguiar,PB,Nordeste,-7.0918,-38.1681,0
2500304,Alagoa Grande,PB,Nordeste,-7.03943,-35.6206,0
2500403,Alagoa Nova,PB,Nordeste,-7.05377,-35.7591,0
2500502,Alagoinha,PB,Nordeste,-6.94657,-35.5332,0
2500536,Alcantil,PB,Nordeste,-7.73668,-36.0511,0
2500577,Algodão de Jandaíra,PB,Nordeste,-6.89292,-36.0129,0
2500601,Alhandra,PB,Nordeste,-7.42977,-34.9057,0
2500700,São João do Rio do Peixe,PB,Nordeste,-6.72195,-38.4468,0
2500734,Amparo,PB,Nordeste,-7.55502,-37.0628,0
2500775,Aparecida,PB,Nordeste,-6.78466,-38.0803,0
2500809,Araçagi,PB,Nordeste,-6.84374,-35.3737,0
2500908,Arara,PB,Nordeste,-6.82813,-35.7552,0
2501005,Araruna,PB,Nordeste,-6.54848,-35.7498,0
2501104,Areia,PB,Nordeste,-6.96396,-35.6977,0
2501153,Areia de Baraúnas,PB,Nordeste,-7.11702,-36.9404,0
2501203,Areial,PB,Nordeste,-7.04789,-35.9313,0
2501302,Aroeiras,PB,Nordeste,-7.54473,-35.7066,0
2501351,Assunção,PB,Nordeste,-7.07231,-36.725,0
2501401,Baía da Traição,PB,Nordeste,-6.69209,-34.9381,0
2501500,Bananeiras,PB,Nordeste,-6.74775,-35.6246,0
2501534,Baraúna,PB,Nordeste,-6.63484,-36.2601,0
2501575,Barra de Santana,PB,Nordeste,-7.51809,-35.9913,0
2501609,Barra de Santa Rosa,PB,Nordeste,-6.71816,-36.0671,0
2501708,Barra de São Miguel,PB,Nordeste,-7.74603,-36.3209,0
2501807,Bayeux,PB,Nordeste,-7.1238,-34.9293,0
2501906,Belém,PB,Nordeste,-6.74261,-35.5166,0
2502003,Belém do Brejo do Cruz,PB,Nordeste,-6.18515,-37.5348,0
2502052,Bernardino Batista,PB,Nordeste,-6.44572,-38.5521,0
2502102,Boa Ventura,PB,Nordeste,-7.40982,-38.2113,0
2502151,Boa Vista,PB,Nordeste,-7.26365,-36.2357,0
2502201,Bom Jesus,PB,Nordeste,-6.81601,-38.6453,0
2502300,Bom Sucesso,PB,Nordeste,-6.44176,-37.9234,0
2502409,Bonito de Santa Fé,PB,Nordeste,-7.31341,-38.5133,0
2502508,Boqueirão,PB,Nordeste,-7.487,-36.1309,0
2502607,Igaracy,PB,Nordeste,-7.17184,-38.1478,0
2502706,Borborema,PB,Nordeste,-6.80199,-35.6187,0
2502805,Brejo do Cruz,PB,Nordeste,-6.34185,-37.4943,0
2502904,Brejo dos Santos,PB,Nordeste,-6.37065,-37.8253,0
2503001,Caaporã,PB,Nordeste,-7.51351,-34.9055,0
2503100,Cabaceiras,PB,Nordeste,-7.48899,-36.287,0
2503209,Cabedelo,PB,Nordeste,-6.98731,-34.8284,0
2503308,Cachoeira dos Índios,PB,Nordeste,-6.91353,-38.676,0
2503407,Cacimba de Areia,PB,Nordeste,-7.12128,-37.1563,0
2503506,Cacimba de Dentro,PB,Nordeste,-6.6386,-35.7778,0
2503555,Cacimbas,PB,Nordeste,-7.20721,-37.0604,0
2503605,Caiçara,PB,Nordeste,-6.62115,-35.4581,0
2503704,Cajazeiras,PB,Nordeste,-6.88004,-38.5577,0
2503753,Cajazeirinhas,PB,Nordeste,-6.96016,-37.8009,0
2503803,Caldas Brandão,PB,Nordeste,-7.1025,-35.3272,0
2503902,Camalaú,PB,Nordeste,-7.88503,-36.8242,0
2504009,Campina Grande,PB,Nordeste,-7.22196,-35.8731,0
2504033,Capim,PB,Nordeste,-6.91624,-35.1673,0
2504074,Caraúbas,PB,Nordeste,-7.72049,-36.492,0
2504108,Carrapateira,PB,Nordeste,-7.03414,-38.3399,0
2504157,Casserengue,PB,Nordeste,-6.77954,-35.8179,0
2504207,Catingueira,PB,Nordeste,-7.12008,-37.6064,0
2504306,Catolé do Rocha,PB,Nordeste,-6.34062,-37.747,0
2504355,Caturité,PB,Nordeste,-7.41659,-36.0306,0
2504405,Conceição,PB,Nordeste,-7.55106,-38.5014,0
2504504,Condado,PB,Nordeste,-6.89831,-37.606,0
2504603,Conde,PB,Nordeste,-7.25746,-34.8999,0
2504702,Congo,PB,Nordeste,-7.79078,-36.6581,0
2504801,Coremas,PB,Nordeste,-7.00712,-37.9346,0
2504850,Coxixola,PB,Nordeste,-7.62365,-36.6064,0
2504900,Cruz do Espírito Santo,PB,Nordeste,-7.13902,-35.0857,0
2505006,Cubati,PB,Nordeste,-6.86686,-36.3619,0
2505105,Cuité,PB,Nordeste,-6.47647,-36.1515,0
2505204,Cuitegi,PB,Nordeste,-6.89058,-35.5215,0
2505238,Cuité de Mamanguape,PB,Nordeste,-6.91292,-35.2502,0
2505279,Curral de Cima,PB,Nordeste,-6.72325,-35.2639,0
2505303,Curral Velho,PB,Nordeste,-7.53075,-38.1962,0
2505352,Damião,PB,Nordeste,-6.63161,-35.9101,0
2505402,Desterro,PB,Nordeste,-7.287,-37.0925,0
2505501,Vista Serrana,PB,Nordeste,-6.7303,-37.5704,0
2505600,Diamante,PB,Nordeste,-7.41738,-38.2615,0
2505709,Dona Inês,PB,Nordeste,-6.61566,-35.6205,0
2505808,Duas Estradas,PB,Nordeste,-6.68499,-35.418,0
2505907,Emas,PB,Nordeste,-7.09964,-37.7163,0
2506004,Esperança,PB,Nordeste,-7.02278,-35.8597,0
2506103,Fagundes,PB,Nordeste,-7.34454,-35.7931,0
2506202,Frei Martinho,PB,Nordeste,-6.39759,-36.4526,0
2506251,Gado Bravo,PB,Nordeste,-7.58279,-35.7899,0
2506301,Guarabira,PB,Nordeste,-6.85064,-35.485,0
2506400,Gurinhém,PB,Nordeste,-7.1233,-35.4222,0
2506509,Gurjão,PB,Nordeste,-7.24833,-36.4923,0
2506608,Ibiara,PB,Nordeste,-7.47957,-38.4059,0
2506707,Imaculada,PB,Nordeste,-7.3889,-37.5079,0
2506806,Ingá,PB,Nordeste,-7.28144,-35.605,0
2506905,Itabaiana,PB,Nordeste,-7.33167,-35.3317,0
2507002,Itaporanga,PB,Nordeste,-7.30202,-38.1504,0
2507101,Itapororoca,PB,Nordeste,-6.82374,-35.2406,0
2507200,Itatuba,PB,Nordeste,-7.38115,-35.638,0
2507309,Jacaraú,PB,Nordeste,-6.61453,-35.289,0
2507408,Jericó,PB,Nordeste,-6.54577,-37.8036,0
2507507,João Pessoa,PB,Nordeste,-7.11509,-34.8641,1
2507606,Juarez Távora,PB,Nordeste,-7.1713,-35.5686,0
2507705,Juazeirinho,PB,Nordeste,-7.06092,-36.5793,0
2507804,Junco do Seridó,PB,Nordeste,-6.99269,-36.7166,0
2507903,Juripiranga,PB,Nordeste,-7.36176,-35.2321,0
2508000,Juru,PB,Nordeste,-7.52983,-37.815,0
2508109,Lagoa,PB,Nordeste,-6.58572,-37.9127,0
2508208,Lagoa de Dentro,PB,Nordeste,-6.67213,-35.3706,0
2508307,Lagoa Seca,PB,Nordeste,-7.15535,-35.8491,0
2508406,Lastro,PB,Nordeste,-6.50603,-38.1742,0
2508505,Livramento,PB,Nordeste,-7.37113,-36.9491,0
2508554,Logradouro,PB,Nordeste,-6.61191,-35.4384,0
2508604,Lucena,PB,Nordeste,-6.90258,-34.8748,0
2508703,Mãe d'Água,PB,Nordeste,-7.25201,-37.4322,0
2508802,Malta,PB,Nordeste,-6.89719,-37.5221,0
2508901,Mamanguape,PB,Nordeste,-6.8337,-35.1213,0
2509008,Manaíra,PB,Nordeste,-7.70331,-38.1523,0
2509057,Marcação,PB,Nordeste,-6.76535,-35.0087,0
2509107,Mari,PB,Nordeste,-7.05942,-35.318,0
2509156,Marizópolis,PB,Nordeste,-6.82748,-38.3528,0
2509206,Massaranduba,PB,Nordeste,-7.18995,-35.7848,0
2509305,Mataraca,PB,Nordeste,-6.59673,-35.0531,0
2509339,Matinhas,PB,Nordeste,-7.12486,-35.7669,0
2509370,Mato Grosso,PB,Nordeste,-6.54018,-37.7279,0
2509396,Maturéia,PB,Nordeste,-7.26188,-37.351,0
2509404,Mogeiro,PB,Nordeste,-7.28517,-35.4832,0
2509503,Montadas,PB,Nordeste,-7.08848,-35.9592,0
2509602,Monte Horebe,PB,Nordeste,-7.20402,-38.5838,0
2509701,Monteiro,PB,Nordeste,-7.88363,-37.1184,0
2509800,Mulungu,PB,Nordeste,-7.02525,-35.46,0
2509909,Natuba,PB,Nordeste,-7.63514,-35.5586,0
2510006,Nazarezinho,PB,Nordeste,-6.9114,-38.322,0
2510105,Nova Floresta,PB,Nordeste,-6.45056,-36.2057,0
2510204,Nova Olinda,PB,Nordeste,-7.47232,-38.0382,0
2510303,Nova Palmeira,PB,Nordeste,-6.67122,-36.422,0
2510402,Olho d'Água,PB,Nordeste,-7.22118,-37.7406,0
2510501,Olivedos,PB,Nordeste,-6.98434,-36.241,0
2510600,Ouro Velho,PB,Nordeste,-7.61604,-37.1519,0
2510659,Parari,PB,Nordeste,-7.30975,-36.6522,0
2510709,Passagem,PB,Nordeste,-7.13467,-37.0433,0
2510808,Patos,PB,Nordeste,-7.01743,-37.2747,0
2510907,Paulista,PB,Nordeste,-6.59138,-37.6185,0
2511004,Pedra Branca,PB,Nordeste,-7.42169,-38.0689,0
2511103,Pedra Lavrada,PB,Nordeste,-6.74997,-36.4758,0
2511202,Pedras de Fogo,PB,Nordeste,-7.39107,-35.1065,0
2511301,Piancó,PB,Nordeste,-7.19282,-37.9289,0
2511400,Picuí,PB,Nordeste,-6.50845,-36.3497,0
2511509,Pilar,PB,Nordeste,-7.26403,-35.2523,0
2511608,Pilões,PB,Nordeste,-6.86827,-35.613,0
2511707,Pilõezinhos,PB,Nordeste,-6.84277,-35.531,0
2511806,Pirpirituba,PB,Nordeste,-6.77922,-35.4906,0
2511905,Pitimbu,PB,Nordeste,-7.4664,-34.8151,0
2512002,Pocinhos,PB,Nordeste,-7.06658,-36.0668,0
2512036,Poço Dantas,PB,Nordeste,-6.39876,-38.4909,0
2512077,Poço de José de Moura,PB,Nordeste,-6.56401,-38.5111,0
2512101,Pombal,PB,Nordeste,-6.76606,-37.8003,0
2512200,Prata,PB,Nordeste,-7.68826,-37.0801,0
2512309,Princesa Isabel,PB,Nordeste,-7.73175,-37.9886,0
2512408,Puxinanã,PB,Nordeste,-7.15479,-35.9543,0
2512507,Queimadas,PB,Nordeste,-7.35029,-35.9031,0
2512606,Quixaba,PB,Nordeste,-7.0224,-37.1458,0
2512705,Remígio,PB,Nordeste,-6.94992,-35.8011,0
2512721,Pedro Régis,PB,Nordeste,-6.63323,-35.2966,0
2512747,Riachão,PB,Nordeste,-6.54269,-35.661,0
2512754,Riachão do Bacamarte,PB,Nordeste,-7.25347,-35.6693,0
2512762,Riachão do Poço,PB,Nordeste,-7.14173,-35.2914,0
2512788,Riacho de Santo Antônio,PB,Nordeste,-7.68023,-36.157,0
2512804,Riacho dos Cavalos,PB,Nordeste,-6.44067,-37.6483,0
2512903,Rio Tinto,PB,Nordeste,-6.80383,-35.0776,0
2513000,Salgadinho,PB,Nordeste,-7.10098,-36.8458,0
2513109,Salgado de São Félix,PB,Nordeste,-7.35337,-35.4305,0
2513158,Santa Cecília,PB,Nordeste,-7.7389,-35.8764,0
2513208,Santa Cruz,PB,Nordeste,-6.5237,-38.0617,0
2513307,Santa Helena,PB,Nordeste,-6.7176,-38.6427,0
2513356,Santa Inês,PB,Nordeste,-7.621,-38.554,0
2513406,Santa Luzia,PB,Nordeste,-6.86092,-36.9178,0
2513505,Santana de Mangueira,PB,Nordeste,-7.54705,-38.3236,0
2513604,Santana dos Garrotes,PB,Nordeste,-7.38162,-37.9819,0
2513653,Joca Claudino,PB,Nordeste,-6.48362,-38.4764,0
2513703,Santa Rita,PB,Nordeste,-7.11724,-34.9753,0
2513802,Santa Teresinha,PB,Nordeste,-7.07964,-37.4435,0
2513851,Santo André,PB,Nordeste,-7.22016,-36.6213,0
2513901,São Bento,PB,Nordeste,-6.48529,-37.4488,0
2513927,São Bentinho,PB,Nordeste,-6.88596,-37.7243,0
2513943,São Domingos do Cariri,PB,Nordeste,-7.63273,-36.4374,0
2513968,São Domingos,PB,Nordeste,-6.80313,-37.9488,0
2513984,São Francisco,PB,Nordeste,-6.60773,-38.0968,0
2514008,São João do Cariri,PB,Nordeste,-7.38168,-36.5345,0
2514107,São João do Tigre,PB,Nordeste,-8.07703,-36.8547,0
2514206,São José da Lagoa Tapada,PB,Nordeste,-6.93646,-38.1622,0
2514305,São José de Caiana,PB,Nordeste,-7.24636,-38.2989,0
2514404,São José de Espinharas,PB,Nordeste,-6.83974,-37.3214,0
2514453,São José dos Ramos,PB,Nordeste,-7.25238,-35.3725,0
2514503,São José de Piranhas,PB,Nordeste,-7.1187,-38.502,0
2514552,São José de Princesa,PB,Nordeste,-7.73633,-38.0894,0
2514602,São José do Bonfim,PB,Nordeste,-7.1607,-37.3036,0
2514651,São José do Brejo do Cruz,PB,Nordeste,-6.21054,-37.3601,0
2514701,São José do Sabugi,PB,Nordeste,-6.76295,-36.7972,0
2514800,São José dos Cordeiros,PB,Nordeste,-7.38775,-36.8085,0
2514909,São Mamede,PB,Nordeste,-6.92386,-37.0954,0
2515005,São Miguel de Taipu,PB,Nordeste,-7.24764,-35.2016,0
2515104,São Sebastião de Lagoa de Roça,PB,Nordeste,-7.11034,-35.8678,0
2515203,São Sebastião do Umbuzeiro,PB,Nordeste,-8.15289,-37.0138,0
2515302,Sapé,PB,Nordeste,-7.09359,-35.228,0
2515401,São Vicente do Seridó,PB,Nordeste,-6.85426,-36.4122,0
2515500,Serra Branca,PB,Nordeste,-7.48034,-36.666,0
2515609,Serra da Raiz,PB,Nordeste,-6.68527,-35.4379,0
2515708,Serra Grande,PB,Nordeste,-7.20957,-38.3647,0
2515807,Serra Redonda,PB,Nordeste,-7.18622,-35.6842,0
2515906,Serraria,PB,Nordeste,-6.81569,-35.6282,0
2515930,Sertãozinho,PB,Nordeste,-6.75127,-35.4372,0
2515971,Sobrado,PB,Nordeste,-7.14429,-35.2357,0
2516003,Solânea,PB,Nordeste,-6.75161,-35.6636,0
2516102,Soledade,PB,Nordeste,-7.05829,-36.3668,0
2516151,Sossêgo,PB,Nordeste,-6.77067,-36.2538,0
2516201,Sousa,PB,Nordeste,-6.75148,-38.2311,0
2516300,Sumé,PB,Nordeste,-7.66206,-36.884,0
2516409,Tacima,PB,Nordeste,-6.48759,-35.6367,0
2516508,Taperoá,PB,Nordeste,-7.20629,-36.8245,0
2516607,Tavares,PB,Nordeste,-7.62697,-37.8712,0
2516706,Teixeira,PB,Nordeste,-7.22104,-37.2525,0
2516755,Tenório,PB,Nordeste,-6.93855,-36.6273,0
2516805,Triunfo,PB,Nordeste,-6.5713,-38.5986,0
2516904,Uiraúna,PB,Nordeste,-6.51504,-38.4128,0
2517001,Umbuzeiro,PB,Nordeste,-7.69199,-35.6582,0
2517100,Várzea,PB,Nordeste,-6.76189,-36.9913,0
2517209,Vieirópolis,PB,Nordeste,-6.50684,-38.2567,0
2517407,Zabelê,PB,Nordeste,-8.07901,-37.1057,0
2600054,Abreu e Lima,PE,Nordeste,-7.90072,-34.8984,0
2600104,Afogados da Ingazeira,PE,Nordeste,-7.74312,-37.631,0
2600203,Afrânio,PE,Nordeste,-8.51136,-41.0095,0
2600302,Agrestina,PE,Nordeste,-8.45966,-35.9447,0
2600401,Água Preta,PE,Nordeste,-8.70609,-35.5263,0
2600500,Águas Belas,PE,Nordeste,-9.11125,-37.1226,0
2600609,Alagoinha,PE,Nordeste,-8.4665,-36.7788,0
2600708,Aliança,PE,Nordeste,-7.60398,-35.2227,0
2600807,Altinho,PE,Nordeste,-8.48482,-36.0644,0
2600906,Amaraji,PE,Nordeste,-8.37691,-35.4501,0
2601003,Angelim,PE,Nordeste,-8.88429,-36.2902,0
2601052,Araçoiaba,PE,Nordeste,-7.78391,-35.0809,0
2601102,Araripina,PE,Nordeste,-7.57073,-40.494,0
2601201,Arcoverde,PE,Nordeste,-8.41519,-37.0577,0
2601300,Barra de Guabiraba,PE,Nordeste,-8.42075,-35.6585,0
2601409,Barreiros,PE,Nordeste,-8.81605,-35.1832,0
2601508,Belém de Maria,PE,Nordeste,-8.62504,-35.8335,0
2601607,Belém do São Francisco,PE,Nordeste,-8.75046,-38.9623,0
2601706,Belo Jardim,PE,Nordeste,-8.3313,-36.4258,0
2601805,Betânia,PE,Nordeste,-8.26787,-38.0345,0
2601904,Bezerros,PE,Nordeste,-8.2328,-35.796,0
2602001,Bodocó,PE,Nordeste,-7.77759,-39.9338,0
2602100,Bom Conselho,PE,Nordeste,-9.16919,-36.6857,0
2602209,Bom Jardim,PE,Nordeste,-7.79695,-35.5784,0
2602308,Bonito,PE,Nordeste,-8.47163,-35.7292,0
2602407,Brejão,PE,Nordeste,-9.02915,-36.566,0
2602506,Brejinho,PE,Nordeste,-7.34694,-37.2865,0
2602605,Brejo da Madre de Deus,PE,Nordeste,-8.14933,-36.3741,0
2602704,Buenos Aires,PE,Nordeste,-7.72449,-35.3182,0
2602803,Buíque,PE,Nordeste,-8.61954,-37.1606,0
2602902,Cabo de Santo Agostinho,PE,Nordeste,-8.28218,-35.0253,0
2603009,Cabrobó,PE,Nordeste,-8.50548,-39.3094,0
2603108,Cachoeirinha,PE,Nordeste,-8.48668,-36.2402,0
2603207,Caetés,PE,Nordeste,-8.7803,-36.6268,0
2603306,Calçado,PE,Nordeste,-8.73108,-36.3366,0
2603405,Calumbi,PE,Nordeste,-7.93551,-38.1482,0
2603454,Camaragibe,PE,Nordeste,-8.02351,-34.9782,0
2603504,Camocim de São Félix,PE,Nordeste,-8.35865,-35.7653,0
2603603,Camutanga,PE,Nordeste,-7.40545,-35.2664,0
2603702,Canhotinho,PE,Nordeste,-8.87652,-36.1979,0
2603801,Capoeiras,PE,Nordeste,-8.73423,-36.6306,0
2603900,Carnaíba,PE,Nordeste,-7.79342,-37.7946,0
2603926,Carnaubeira da Penha,PE,Nordeste,-8.31799,-38.7512,0
2604007,Carpina,PE,Nordeste,-7.84566,-35.2514,0
2604106,Caruaru,PE,Nordeste,-8.28455,-35.9699,0
2604155,Casinhas,PE,Nordeste,-7.74084,-35.7206,0
2604205,Catende,PE,Nordeste,-8.67509,-35.7024,0
2604304,Cedro,PE,Nordeste,-7.71179,-39.2367,0
2604403,Chã de Alegria,PE,Nordeste,-8.00679,-35.204,0
2604502,Chã Grande,PE,Nordeste,-8.23827,-35.4571,0
2604601,Condado,PE,Nordeste,-7.58787,-35.0999,0
2604700,Correntes,PE,Nordeste,-9.12117,-36.3244,0
2604809,Cortês,PE,Nordeste,-8.47443,-35.5468,0
2604908,Cumaru,PE,Nordeste,-8.00827,-35.6957,0
2605004,Cupira,PE,Nordeste,-8.62432,-35.9518,0
2605103,Custódia,PE,Nordeste,-8.08546,-37.6443,0
2605152,Dormentes,PE,Nordeste,-8.44116,-40.7662,0
2605202,Escada,PE,Nordeste,-8.35672,-35.2241,0
2605301,Exu,PE,Nordeste,-7.50364,-39.7238,0
2605400,Feira Nova,PE,Nordeste,-7.94704,-35.3801,0
2605459,Fernando de Noronha,PE,Nordeste,-3.8396,-32.4107,0
2605509,Ferreiros,PE,Nordeste,-7.44666,-35.2373,0
2605608,Flores,PE,Nordeste,-7.85842,-37.9715,0
2605707,Floresta,PE,Nordeste,-8.60307,-38.5687,0
2605806,Frei Miguelinho,PE,Nordeste,-7.93918,-35.9113,0
2605905,Gameleira,PE,Nordeste,-8.5798,-35.3846,0
2606002,Garanhuns,PE,Nordeste,-8.88243,-36.4966,0
2606101,Glória do Goitá,PE,Nordeste,-8.00568,-35.2904,0
2606200,Goiana,PE,Nordeste,-7.5606,-34.9959,0
2606309,Granito,PE,Nordeste,-7.70711,-39.615,0
2606408,Gravatá,PE,Nordeste,-8.21118,-35.5675,0
2606507,Iati,PE,Nordeste,-9.04559,-36.8498,0
2606606,Ibimirim,PE,Nordeste,-8.54026,-37.7032,0
2606705,Ibirajuba,PE,Nordeste,-8.57633,-36.1812,0
2606804,Igarassu,PE,Nordeste,-7.82881,-34.9013,0
2606903,Iguaracy,PE,Nordeste,-7.83222,-37.5082,0
2607000,Inajá,PE,Nordeste,-8.90206,-37.8351,0
2607109,Ingazeira,PE,Nordeste,-7.66909,-37.4576,0
2607208,Ipojuca,PE,Nordeste,-8.39303,-35.0609,0
2607307,Ipubi,PE,Nordeste,-7.64505,-40.1476,0
2607406,Itacuruba,PE,Nordeste,-8.82231,-38.6975,0
2607505,Itaíba,PE,Nordeste,-8.94569,-37.4173,0
2607604,Ilha de Itamaracá,PE,Nordeste,-7.74766,-34.8303,0
2607653,Itambé,PE,Nordeste,-7.41403,-35.0963,0
2607703,Itapetim,PE,Nordeste,-7.37178,-37.1863,0
2607752,Itapissuma,PE,Nordeste,-7.76798,-34.8971,0
2607802,Itaquitinga,PE,Nordeste,-7.66373,-35.1002,0
2607901,Jaboatão dos Guararapes,PE,Nordeste,-8.11298,-35.015,0
2607950,Jaqueira,PE,Nordeste,-8.72618,-35.7942,0
2608008,Jataúba,PE,Nordeste,-7.97668,-36.4943,0
2608057,Jatobá,PE,Nordeste,-9.17476,-38.2607,0
2608107,João Alfredo,PE,Nordeste,-7.86565,-35.5787,0
2608206,Joaquim Nabuco,PE,Nordeste,-8.62281,-35.5288,0
2608255,Jucati,PE,Nordeste,-8.70195,-36.4871,0
2608305,Jupi,PE,Nordeste,-8.70904,-36.4126,0
2608404,Jurema,PE,Nordeste,-8.70714,-36.1347,0
2608453,Lagoa do Carro,PE,Nordeste,-7.84383,-35.3108,0
2608503,Lagoa de Itaenga,PE,Nordeste,-7.93005,-35.2874,0
2608602,Lagoa do Ouro,PE,Nordeste,-9.12567,-36.4584,0
2608701,Lagoa dos Gatos,PE,Nordeste,-8.6602,-35.904,0
2608750,Lagoa Grande,PE,Nordeste,-8.99452,-40.2767,0
2608800,Lajedo,PE,Nordeste,-8.65791,-36.3293,0
2608909,Limoeiro,PE,Nordeste,-7.8726,-35.4402,0
2609006,Macaparana,PE,Nordeste,-7.55564,-35.4425,0
2609105,Machados,PE,Nordeste,-7.68827,-35.5114,0
2609154,Manari,PE,Nordeste,-8.9649,-37.6313,0
2609204,Maraial,PE,Nordeste,-8.79062,-35.8266,0
2609303,Mirandiba,PE,Nordeste,-8.12113,-38.7388,0
2609402,Moreno,PE,Nordeste,-8.10871,-35.0835,0
2609501,Nazaré da Mata,PE,Nordeste,-7.74149,-35.2193,0
2609600,Olinda,PE,Nordeste,-8.01017,-34.8545,0
2609709,Orobó,PE,Nordeste,-7.74553,-35.5956,0
2609808,Orocó,PE,Nordeste,-8.61026,-39.6026,0
2609907,Ouricuri,PE,Nordeste,-7.87918,-40.08,0
2610004,Palmares,PE,Nordeste,-8.68423,-35.589,0
2610103,Palmeirina,PE,Nordeste,-9.0109,-36.3242,0
2610202,Panelas,PE,Nordeste,-8.66121,-36.0125,0
2610301,Paranatama,PE,Nordeste,-8.91875,-36.6549,0
2610400,Parnamirim,PE,Nordeste,-8.08729,-39.5795,0
2610509,Passira,PE,Nordeste,-7.9971,-35.5813,0
2610608,Paudalho,PE,Nordeste,-7.90287,-35.1716,0
2610707,Paulista,PE,Nordeste,-7.93401,-34.8684,0
2610806,Pedra,PE,Nordeste,-8.49641,-36.94,0
2610905,Pesqueira,PE,Nordeste,-8.35797,-36.6978,0
2611002,Petrolândia,PE,Nordeste,-9.06863,-38.3027,0
2611101,Petrolina,PE,Nordeste,-9.38866,-40.5027,0
2611200,Poção,PE,Nordeste,-8.18726,-36.7111,0
2611309,Pombos,PE,Nordeste,-8.13982,-35.3967,0
2611408,Primavera,PE,Nordeste,-8.32999,-35.3544,0
2611507,Quipapá,PE,Nordeste,-8.81175,-36.0137,0
2611533,Quixaba,PE,Nordeste,-7.70734,-37.8446,0
2611606,Recife,PE,Nordeste,-8.04666,-34.8771,1
2611705,Riacho das Almas,PE,Nordeste,-8.13742,-35.8648,0
2611804,Ribeirão,PE,Nordeste,-8.50957,-35.3698,0
2611903,Rio Formoso,PE,Nordeste,-8.6592,-35.1532,0
2612000,Sairé,PE,Nordeste,-8.32864,-35.6967,0
2612109,Salgadinho,PE,Nordeste,-7.9269,-35.6503,0
2612208,Salgueiro,PE,Nordeste,-8.07373,-39.1247,0
2612307,Saloá,PE,Nordeste,-8.9723,-36.691,0
2612406,Sanharó,PE,Nordeste,-8.36097,-36.5696,0
2612455,Santa Cruz,PE,Nordeste,-8.24153,-40.3434,0
2612471,Santa Cruz da Baixa Verde,PE,Nordeste,-7.81339,-38.1476,0
2612505,Santa Cruz do Capibaribe,PE,Nordeste,-7.94802,-36.2061,0
2612554,Santa Filomena,PE,Nordeste,-8.16688,-40.6079,0
2612604,Santa Maria da Boa Vista,PE,Nordeste,-8.79766,-39.8241,0
2612703,Santa Maria do Cambucá,PE,Nordeste,-7.83676,-35.8941,0
2612802,Santa Terezinha,PE,Nordeste,-7.37696,-37.4787,0
2612901,São Benedito do Sul,PE,Nordeste,-8.8166,-35.9453,0
2613008,São Bento do Una,PE,Nordeste,-8.52637,-36.4465,0
2613107,São Caitano,PE,Nordeste,-8.33763,-36.2869,0
2613206,São João,PE,Nordeste,-8.87576,-36.3653,0
2613305,São Joaquim do Monte,PE,Nordeste,-8.43196,-35.8035,0
2613404,São José da Coroa Grande,PE,Nordeste,-8.88937,-35.1515,0
2613503,São José do Belmonte,PE,Nordeste,-7.85723,-38.7577,0
2613602,São José do Egito,PE,Nordeste,-7.46945,-37.274,0
2613701,São Lourenço da Mata,PE,Nordeste,-8.00684,-35.0124,0
2613800,São Vicente Férrer,PE,Nordeste,-7.58969,-35.4808,0
2613909,Serra Talhada,PE,Nordeste,-7.98178,-38.289,0
2614006,Serrita,PE,Nordeste,-7.94041,-39.2951,0
2614105,Sertânia,PE,Nordeste,-8.06847,-37.2684,0
2614204,Sirinhaém,PE,Nordeste,-8.58778,-35.1126,0
2614303,Moreilândia,PE,Nordeste,-7.61931,-39.546,0
2614402,Solidão,PE,Nordeste,-7.59472,-37.6445,0
2614501,Surubim,PE,Nordeste,-7.84746,-35.7481,0
2614600,Tabira,PE,Nordeste,-7.58366,-37.5377,0
2614709,Tacaimbó,PE,Nordeste,-8.30867,-36.3,0
2614808,Tacaratu,PE,Nordeste,-9.09798,-38.1504,0
2614857,Tamandaré,PE,Nordeste,-8.75665,-35.1033,0
2615003,Taquaritinga do Norte,PE,Nordeste,-7.89446,-36.0423,0
2615102,Terezinha,PE,Nordeste,-9.05621,-36.6272,0
2615201,Terra Nova,PE,Nordeste,-8.22244,-39.3825,0
2615300,Timbaúba,PE,Nordeste,-7.50484,-35.3119,0
2615409,Toritama,PE,Nordeste,-8.00955,-36.0637,0
2615508,Tracunhaém,PE,Nordeste,-7.80228,-35.2314,0
2615607,Trindade,PE,Nordeste,-7.759,-40.2647,0
2615706,Triunfo,PE,Nordeste,-7.83272,-38.0978,0
2615805,Tupanatinga,PE,Nordeste,-8.74798,-37.3445,0
2615904,Tuparetama,PE,Nordeste,-7.6003,-37.3165,0
2616001,Venturosa,PE,Nordeste,-8.57885,-36.8742,0
2616100,Verdejante,PE,Nordeste,-7.92235,-38.9701,0
2616183,Vertente do Lério,PE,Nordeste,-7.77084,-35.8491,0
2616209,Vertentes,PE,Nordeste,-7.90158,-35.9681,0
2616308,Vicência,PE,Nordeste,-7.65655,-35.3139,0
2616407,Vitória de Santo Antão,PE,Nordeste,-8.12819,-35.2976,0
2616506,Xexéu,PE,Nordeste,-8.8046,-35.6212,0
2700102,Água Branca,AL,Nordeste,-9.262,-37.938,0
2700201,Anadia,AL,Nordeste,-9.68489,-36.3078,0
2700300,Arapiraca,AL,Nordeste,-9.75487,-36.6615,0
2700409,Atalaia,AL,Nordeste,-9.5119,-36.0086,0
2700508,Barra de Santo Antônio,AL,Nordeste,-9.4023,-35.5101,0
2700607,Barra de São Miguel,AL,Nordeste,-9.83842,-35.9057,0
2700706,Batalha,AL,Nordeste,-9.6742,-37.133,0
2700805,Belém,AL,Nordeste,-9.57047,-36.4904,0
2700904,Belo Monte,AL,Nordeste,-9.82272,-37.277,0
2701001,Boca da Mata,AL,Nordeste,-9.64308,-36.2125,0
2701100,Branquinha,AL,Nordeste,-9.23342,-36.0162,0
2701209,Cacimbinhas,AL,Nordeste,-9.40121,-36.9911,0
2701308,Cajueiro,AL,Nordeste,-9.3994,-36.1559,0
2701357,Campestre,AL,Nordeste,-8.84723,-35.5685,0
2701407,Campo Alegre,AL,Nordeste,-9.78451,-36.3525,0
2701506,Campo Grande,AL,Nordeste,-9.95542,-36.7926,0
2701605,Canapi,AL,Nordeste,-9.11932,-37.5967,0
2701704,Capela,AL,Nordeste,-9.41504,-36.0826,0
2701803,Carneiros,AL,Nordeste,-9.48476,-37.3773,0
2701902,Chã Preta,AL,Nordeste,-9.2556,-36.2983,0
2702009,Coité do Nóia,AL,Nordeste,-9.63348,-36.5845,0
2702108,Colônia Leopoldina,AL,Nordeste,-8.91806,-35.7214,0
2702207,Coqueiro Seco,AL,Nordeste,-9.63715,-35.7994,0
2702306,Coruripe,AL,Nordeste,-10.1276,-36.1717,0
2702355,Craíbas,AL,Nordeste,-9.6178,-36.7697,0
2702405,Delmiro Gouveia,AL,Nordeste,-9.38534,-37.9987,0
2702504,Dois Riachos,AL,Nordeste,-9.38465,-37.0965,0
2702553,Estrela de Alagoas,AL,Nordeste,-9.39089,-36.7644,0
2702603,Feira Grande,AL,Nordeste,-9.89859,-36.6815,0
2702702,Feliz Deserto,AL,Nordeste,-10.2935,-36.3028,0
2702801,Flexeiras,AL,Nordeste,-9.27281,-35.7139,0
2702900,Girau do Ponciano,AL,Nordeste,-9.88404,-36.8316,0
2703007,Ibateguara,AL,Nordeste,-8.97823,-35.9373,0
2703106,Igaci,AL,Nordeste,-9.53768,-36.6372,0
2703205,Igreja Nova,AL,Nordeste,-10.1235,-36.6597,0
2703304,Inhapi,AL,Nordeste,-9.22594,-37.7509,0
2703403,Jacaré dos Homens,AL,Nordeste,-9.63545,-37.2076,0
2703502,Jacuípe,AL,Nordeste,-8.83951,-35.4591,0
2703601,Japaratinga,AL,Nordeste,-9.08746,-35.2634,0
2703700,Jaramataia,AL,Nordeste,-9.66224,-37.0046,0
2703759,Jequiá da Praia,AL,Nordeste,-10.0133,-36.0142,0
2703809,Joaquim Gomes,AL,Nordeste,-9.1328,-35.7474,0
2703908,Jundiá,AL,Nordeste,-8.93297,-35.5669,0
2704005,Junqueiro,AL,Nordeste,-9.90696,-36.4803,0
2704104,Lagoa da Canoa,AL,Nordeste,-9.83291,-36.7413,0
2704203,Limoeiro de Anadia,AL,Nordeste,-9.74098,-36.5121,0
2704302,Maceió,AL,Nordeste,-9.66599,-35.735,1
2704401,Major Isidoro,AL,Nordeste,-9.53009,-36.992,0
2704500,Maragogi,AL,Nordeste,-9.00744,-35.2267,0
2704609,Maravilha,AL,Nordeste,-9.23045,-37.3524,0
2704708,Marechal Deodoro,AL,Nordeste,-9.70971,-35.8967,0
2704807,Maribondo,AL,Nordeste,-9.58353,-36.3045,0
2704906,Mar Vermelho,AL,Nordeste,-9.44739,-36.3881,0
2705002,Mata Grande,AL,Nordeste,-9.11824,-37.7323,0
2705101,Matriz de Camaragibe,AL,Nordeste,-9.15437,-35.5243,0
2705200,Messias,AL,Nordeste,-9.39384,-35.8392,0
2705309,Minador do Negrão,AL,Nordeste,-9.31236,-36.8696,0
2705408,Monteirópolis,AL,Nordeste,-9.60357,-37.2505,0
2705507,Murici,AL,Nordeste,-9.30682,-35.9428,0
2705606,Novo Lino,AL,Nordeste,-8.94191,-35.664,0
2705705,Olho d'Água das Flores,AL,Nordeste,-9.53686,-37.2971,0
2705804,Olho d'Água do Casado,AL,Nordeste,-9.50357,-37.8301,0
2705903,Olho d'Água Grande,AL,Nordeste,-10.0572,-36.8101,0
2706000,Olivença,AL,Nordeste,-9.51954,-37.1954,0
2706109,Ouro Branco,AL,Nordeste,-9.15884,-37.3556,0
2706208,Palestina,AL,Nordeste,-9.67493,-37.339,0
2706307,Palmeira dos Índios,AL,Nordeste,-9.40568,-36.6328,0
2706406,Pão de Açúcar,AL,Nordeste,-9.74032,-37.4403,0
2706422,Pariconha,AL,Nordeste,-9.25634,-37.9988,0
2706448,Paripueira,AL,Nordeste,-9.46313,-35.552,0
2706505,Passo de Camaragibe,AL,Nordeste,-9.24511,-35.4745,0
2706604,Paulo Jacinto,AL,Nordeste,-9.36792,-36.3672,0
2706703,Penedo,AL,Nordeste,-10.2874,-36.5819,0
2706802,Piaçabuçu,AL,Nordeste,-10.406,-36.434,0
2706901,Pilar,AL,Nordeste,-9.60135,-35.9543,0
2707008,Pindoba,AL,Nordeste,-9.47382,-36.2918,0
2707107,Piranhas,AL,Nordeste,-9.624,-37.757,0
2707206,Poço das Trincheiras,AL,Nordeste,-9.30742,-37.2889,0
2707305,Porto Calvo,AL,Nordeste,-9.05195,-35.3987,0
2707404,Porto de Pedras,AL,Nordeste,-9.16006,-35.3049,0
2707503,Porto Real do Colégio,AL,Nordeste,-10.1849,-36.8376,0
2707602,Quebrangulo,AL,Nordeste,-9.32001,-36.4692,0
2707701,Rio Largo,AL,Nordeste,-9.47783,-35.8394,0
2707800,Roteiro,AL,Nordeste,-9.83503,-35.9782,0
2707909,Santa Luzia do Norte,AL,Nordeste,-9.6037,-35.8232,0
2708006,Santana do Ipanema,AL,Nordeste,-9.36999,-37.248,0
2708105,Santana do Mundaú,AL,Nordeste,-9.17141,-36.2176,0
2708204,São Brás,AL,Nordeste,-10.1141,-36.8522,0
2708303,São José da Laje,AL,Nordeste,-9.01278,-36.0515,0
2708402,São José da Tapera,AL,Nordeste,-9.55768,-37.3831,0
2708501,São Luís do Quitunde,AL,Nordeste,-9.31816,-35.5606,0
2708600,São Miguel dos Campos,AL,Nordeste,-9.78301,-36.0971,0
2708709,São Miguel dos Milagres,AL,Nordeste,-9.26493,-35.3763,0
2708808,São Sebastião,AL,Nordeste,-9.93043,-36.559,0
2708907,Satuba,AL,Nordeste,-9.56911,-35.8227,0
2708956,Senador Rui Palmeira,AL,Nordeste,-9.46986,-37.4576,0
2709004,Tanque d'Arca,AL,Nordeste,-9.53379,-36.4366,0
2709103,Taquarana,AL,Nordeste,-9.64529,-36.4928,0
2709152,Teotônio Vilela,AL,Nordeste,-9.91656,-36.3492,0
2709202,Traipu,AL,Nordeste,-9.96262,-37.0071,0
2709301,União dos Palmares,AL,Nordeste,-9.15921,-36.0223,0
2709400,Viçosa,AL,Nordeste,-9.36763,-36.2431,0
2800100,Amparo do São Francisco,SE,Nordeste,-10.1348,-36.935,0
2800209,Aquidabã,SE,Nordeste,-10.278,-37.0148,0
2800308,Aracaju,SE,Nordeste,-10.9091,-37.0677,1
2800407,Arauá,SE,Nordeste,-11.2614,-37.6201,0
2800506,Areia Branca,SE,Nordeste,-10.758,-37.3251,0
2800605,Barra dos Coqueiros,SE,Nordeste,-10.8996,-37.0323,0
2800670,Boquim,SE,Nordeste,-11.1397,-37.6195,0
2800704,Brejo Grande,SE,Nordeste,-10.4297,-36.4611,0
2801009,Campo do Brito,SE,Nordeste,-10.7392,-37.4954,0
2801108,Canhoba,SE,Nordeste,-10.1365,-36.9806,0
2801207,Canindé de São Francisco,SE,Nordeste,-9.64882,-37.7923,0
2801306,Capela,SE,Nordeste,-10.5069,-37.0628,0
2801405,Carira,SE,Nordeste,-10.3524,-37.7002,0
2801504,Carmópolis,SE,Nordeste,-10.6449,-36.9887,0
2801603,Cedro de São João,SE,Nordeste,-10.2534,-36.8856,0
2801702,Cristinápolis,SE,Nordeste,-11.4668,-37.7585,0
2801900,Cumbe,SE,Nordeste,-10.352,-37.1846,0
2802007,Divina Pastora,SE,Nordeste,-10.6782,-37.1506,0
2802106,Estância,SE,Nordeste,-11.2659,-37.4484,0
2802205,Feira Nova,SE,Nordeste,-10.2616,-37.3147,0
2802304,Frei Paulo,SE,Nordeste,-10.5513,-37.5279,0
2802403,Gararu,SE,Nordeste,-9.9722,-37.0869,0
2802502,General Maynard,SE,Nordeste,-10.6835,-36.9838,0
2802601,Graccho Cardoso,SE,Nordeste,-10.2252,-37.2006,0
2802700,Ilha das Flores,SE,Nordeste,-10.4425,-36.5479,0
2802809,Indiaroba,SE,Nordeste,-11.5157,-37.515,0
2802908,Itabaiana,SE,Nordeste,-10.6826,-37.4273,0
2803005,Itabaianinha,SE,Nordeste,-11.2693,-37.7875,0
2803104,Itabi,SE,Nordeste,-10.1248,-37.1056,0
2803203,Itaporanga d'Ajuda,SE,Nordeste,-10.99,-37.3078,0
2803302,Japaratuba,SE,Nordeste,-10.5849,-36.9418,0
2803401,Japoatã,SE,Nordeste,-10.3477,-36.8045,0
2803500,Lagarto,SE,Nordeste,-10.9136,-37.6689,0
2803609,Laranjeiras,SE,Nordeste,-10.7981,-37.1731,0
2803708,Macambira,SE,Nordeste,-10.6619,-37.5413,0
2803807,Malhada dos Bois,SE,Nordeste,-10.3418,-36.9252,0
2803906,Malhador,SE,Nordeste,-10.6649,-37.3004,0
2804003,Maruim,SE,Nordeste,-10.7308,-37.0856,0
2804102,Moita Bonita,SE,Nordeste,-10.5769,-37.3512,0
2804201,Monte Alegre de Sergipe,SE,Nordeste,-10.0256,-37.5616,0
2804300,Muribeca,SE,Nordeste,-10.4271,-36.9588,0
2804409,Neópolis,SE,Nordeste,-10.3215,-36.585,0
2804458,Nossa Senhora Aparecida,SE,Nordeste,-10.3944,-37.4517,0
2804508,Nossa Senhora da Glória,SE,Nordeste,-10.2158,-37.4211,0
2804607,Nossa Senhora das Dores,SE,Nordeste,-10.4854,-37.1963,0
2804706,Nossa Senhora de Lourdes,SE,Nordeste,-10.0772,-37.0615,0
2804805,Nossa Senhora do Socorro,SE,Nordeste,-10.8468,-37.1231,0
2804904,Pacatuba,SE,Nordeste,-10.4538,-36.6531,0
2805000,Pedra Mole,SE,Nordeste,-10.6134,-37.6922,0
2805109,Pedrinhas,SE,Nordeste,-11.1902,-37.6775,0
2805208,Pinhão,SE,Nordeste,-10.5677,-37.7242,0
2805307,Pirambu,SE,Nordeste,-10.7215,-36.8544,0
2805406,Poço Redondo,SE,Nordeste,-9.80616,-37.6833,0
2805505,Poço Verde,SE,Nordeste,-10.7151,-38.1813,0
2805604,Porto da Folha,SE,Nordeste,-9.91626,-37.2842,0
2805703,Propriá,SE,Nordeste,-10.2138,-36.8442,0
2805802,Riachão do Dantas,SE,Nordeste,-11.0729,-37.731,0
2805901,Riachuelo,SE,Nordeste,-10.735,-37.1966,0
2806008,Ribeirópolis,SE,Nordeste,-10.5357,-37.438,0
2806107,Rosário do Catete,SE,Nordeste,-10.6904,-37.0357,0
2806206,Salgado,SE,Nordeste,-11.0288,-37.4804,0
2806305,Santa Luzia do Itanhy,SE,Nordeste,-11.3536,-37.4586,0
2806404,Santana do São Francisco,SE,Nordeste,-10.2922,-36.6105,0
2806503,Santa Rosa de Lima,SE,Nordeste,-10.6434,-37.1931,0
2806602,Santo Amaro das Brotas,SE,Nordeste,-10.7892,-37.0564,0
2806701,São Cristóvão,SE,Nordeste,-11.0084,-37.2044,0
2806800,São Domingos,SE,Nordeste,-10.7916,-37.5685,0
2806909,São Francisco,SE,Nordeste,-10.3442,-36.8869,0
2807006,São Miguel do Aleixo,SE,Nordeste,-10.3847,-37.3836,0
2807105,Simão Dias,SE,Nordeste,-10.7387,-37.8097,0
2807204,Siriri,SE,Nordeste,-10.5965,-37.1131,0
2807303,Telha,SE,Nordeste,-10.2064,-36.8818,0
2807402,Tobias Barreto,SE,Nordeste,-11.1798,-37.9995,0
2807501,Tomar do Geru,SE,Nordeste,-11.3694,-37.8433,0
2807600,Umbaúba,SE,Nordeste,-11.3809,-37.6623,0
2900108,Abaíra,BA,Nordeste,-13.2488,-41.6619,0
2900207,Abaré,BA,Nordeste,-8.72073,-39.1162,0
2900306,Acajutiba,BA,Nordeste,-11.6575,-38.0197,0
2900355,Adustina,BA,Nordeste,-10.5437,-38.1113,0
2900405,Água Fria,BA,Nordeste,-11.8618,-38.7639,0
2900504,Érico Cardoso,BA,Nordeste,-13.4215,-42.1352,0
2900603,Aiquara,BA,Nordeste,-14.1269,-39.8937,0
2900702,Alagoinhas,BA,Nordeste,-12.1335,-38.4208,0
2900801,Alcobaça,BA,Nordeste,-17.5195,-39.2036,0
2900900,Almadina,BA,Nordeste,-14.7089,-39.6415,0
2901007,Amargosa,BA,Nordeste,-13.0215,-39.602,0
2901106,Amélia Rodrigues,BA,Nordeste,-12.3914,-38.7563,0
2901155,América Dourada,BA,Nordeste,-11.4429,-41.439,0
2901205,Anagé,BA,Nordeste,-14.6151,-41.1356,0
2901304,Andaraí,BA,Nordeste,-12.8049,-41.3297,0
2901353,Andorinha,BA,Nordeste,-10.3482,-39.8391,0
2901403,Angical,BA,Nordeste,-12.0063,-44.7003,0
2901502,Anguera,BA,Nordeste,-12.1462,-39.2462,0
2901601,Antas,BA,Nordeste,-10.3856,-38.3401,0
2901700,Antônio Cardoso,BA,Nordeste,-12.4335,-39.1176,0
2901809,Antônio Gonçalves,BA,Nordeste,-10.5767,-40.2785,0
2901908,Aporá,BA,Nordeste,-11.6577,-38.0814,0
2901957,Apuarema,BA,Nordeste,-13.8542,-39.7501,0
2902005,Aracatu,BA,Nordeste,-14.428,-41.4648,0
2902054,Araçás,BA,Nordeste,-12.22,-38.2027,0
2902104,Araci,BA,Nordeste,-11.3253,-38.9584,0
2902203,Aramari,BA,Nordeste,-12.0884,-38.4969,0
2902252,Arataca,BA,Nordeste,-15.2651,-39.419,0
2902302,Aratuípe,BA,Nordeste,-13.0716,-39.0038,0
2902401,Aurelino Leal,BA,Nordeste,-14.321,-39.329,0
2902500,Baianópolis,BA,Nordeste,-12.3016,-44.5388,0
2902609,Baixa Grande,BA,Nordeste,-11.9519,-40.169,0
2902658,Banzaê,BA,Nordeste,-10.5788,-38.6212,0
2902708,Barra,BA,Nordeste,-11.0859,-43.1459,0
2902807,Barra da Estiva,BA,Nordeste,-13.6237,-41.3347,0
2902906,Barra do Choça,BA,Nordeste,-14.8654,-40.5791,0
2903003,Barra do Mendes,BA,Nordeste,-11.81,-42.059,0
2903102,Barra do Rocha,BA,Nordeste,-14.2,-39.5991,0
2903201,Barreiras,BA,Nordeste,-12.1439,-44.9968,0
2903235,Barro Alto,BA,Nordeste,-11.7605,-41.9054,0
2903276,Barrocas,BA,Nordeste,-11.5272,-39.0776,0
2903300,Barro Preto,BA,Nordeste,-14.7948,-39.476,0
2903409,Belmonte,BA,Nordeste,-15.8608,-38.8758,0
2903508,Belo Campo,BA,Nordeste,-15.0334,-41.2652,0
2903607,Biritinga,BA,Nordeste,-11.6072,-38.8051,0
2903706,Boa Nova,BA,Nordeste,-14.3598,-40.2064,0
2903805,Boa Vista do Tupim,BA,Nordeste,-12.6498,-40.6064,0
2903904,Bom Jesus da Lapa,BA,Nordeste,-13.2506,-43.4108,0
2903953,Bom Jesus da Serra,BA,Nordeste,-14.3663,-40.5126,0
2904001,Boninal,BA,Nordeste,-12.7069,-41.8286,0
2904050,Bonito,BA,Nordeste,-11.9668,-41.2647,0
2904100,Boquira,BA,Nordeste,-12.8205,-42.7324,0
2904209,Botuporã,BA,Nordeste,-13.3772,-42.5163,0
2904308,Brejões,BA,Nordeste,-13.1039,-39.7988,0
2904407,Brejolândia,BA,Nordeste,-12.4815,-43.9679,0
2904506,Brotas de Macaúbas,BA,Nordeste,-11.9915,-42.6326,0
2904605,Brumado,BA,Nordeste,-14.2021,-41.6696,0
2904704,Buerarema,BA,Nordeste,-14.9595,-39.3028,0
2904753,Buritirama,BA,Nordeste,-10.7171,-43.6302,0
2904803,Caatiba,BA,Nordeste,-14.9699,-40.4092,0
2904852,Cabaceiras do Paraguaçu,BA,Nordeste,-12.5317,-39.1902,0
2904902,Cachoeira,BA,Nordeste,-12.5994,-38.9587,0
